[{
    "name": "Masai Mara Keekorok Airport",
    "iata": "KEU",
    "icao": "HKKE",
    "lat": -1.586377,
    "lon": 35.257462,
    "country": "Kenya",
    "alt": 5532
}, {
    "name": "A Coruna Airport",
    "iata": "LCG",
    "icao": "LECO",
    "lat": 43.302059,
    "lon": -8.37725,
    "country": "Spain",
    "alt": 326
}, {
    "name": "Aachen Merzbruck Airport",
    "iata": "AAH",
    "icao": "EDKA",
    "lat": 50.823051,
    "lon": 6.186111,
    "country": "Germany",
    "alt": 623
}, {
    "name": "Aalborg Airport",
    "iata": "AAL",
    "icao": "EKYT",
    "lat": 57.092781,
    "lon": 9.849164,
    "country": "Denmark",
    "alt": 10
}, {
    "name": "Aarhus Airport",
    "iata": "AAR",
    "icao": "EKAH",
    "lat": 56.300011,
    "lon": 10.619,
    "country": "Denmark",
    "alt": 82
}, {
    "name": "Aarhus Sea Airport",
    "iata": "QEA",
    "icao": "EKAC",
    "lat": 56.151993,
    "lon": 10.247725,
    "country": "Denmark",
    "alt": 1
}, {
    "name": "Aasiaat Airport",
    "iata": "JEG",
    "icao": "BGAA",
    "lat": 68.72184,
    "lon": -52.784698,
    "country": "Greenland",
    "alt": 74
}, {
    "name": "Abadan Airport",
    "iata": "ABD",
    "icao": "OIAA",
    "lat": 30.371111,
    "lon": 48.228329,
    "country": "Iran",
    "alt": 19
}, {
    "name": "Abakan International Airport",
    "iata": "ABA",
    "icao": "UNAA",
    "lat": 53.740002,
    "lon": 91.385002,
    "country": "Russia",
    "alt": 831
}, {
    "name": "Abbotsford International Airport",
    "iata": "YXX",
    "icao": "CYXX",
    "lat": 49.025269,
    "lon": -122.360001,
    "country": "Canada",
    "alt": 195
}, {
    "name": "Aberdeen International Airport",
    "iata": "ABZ",
    "icao": "EGPD",
    "lat": 57.201939,
    "lon": -2.19777,
    "country": "United Kingdom",
    "alt": 215
}, {
    "name": "Aberdeen Regional Airport",
    "iata": "ABR",
    "icao": "KABR",
    "lat": 45.439999,
    "lon": -98.419998,
    "country": "United States",
    "alt": 1302
}, {
    "name": "Abha Regional Airport",
    "iata": "AHB",
    "icao": "OEAB",
    "lat": 18.24036,
    "lon": 42.65662,
    "country": "Saudi Arabia",
    "alt": 6858
}, {
    "name": "Abidjan Port Bouet Airport",
    "iata": "ABJ",
    "icao": "DIAP",
    "lat": 5.261386,
    "lon": -3.92629,
    "country": "Cote D'ivoire (Ivory Coast)",
    "alt": 21
}, {
    "name": "Abilene Regional Airport",
    "iata": "ABI",
    "icao": "KABI",
    "lat": 32.411301,
    "lon": -99.681801,
    "country": "United States",
    "alt": 1790
}, {
    "name": "Abingdon Virginia Highlands Airport",
    "iata": "VJI",
    "icao": "KVJI",
    "lat": 36.686111,
    "lon": -82.033333,
    "country": "United States",
    "alt": 2088
}, {
    "name": "Abu Dhabi Al Bateen Executive Airport",
    "iata": "AZI",
    "icao": "OMAD",
    "lat": 24.428329,
    "lon": 54.45808,
    "country": "United Arab Emirates",
    "alt": 16
}, {
    "name": "Abu Dhabi Al Dhafra Air Base",
    "iata": "DHF",
    "icao": "OMAM",
    "lat": 24.248199,
    "lon": 54.547699,
    "country": "United Arab Emirates",
    "alt": 77
}, {
    "name": "Abu Dhabi International Airport",
    "iata": "AUH",
    "icao": "OMAA",
    "lat": 24.43297,
    "lon": 54.651131,
    "country": "United Arab Emirates",
    "alt": 88
}, {
    "name": "Abu Musa Island Airport",
    "iata": "AEU",
    "icao": "OIBA",
    "lat": 25.8757,
    "lon": 55.033001,
    "country": "Iran",
    "alt": 23
}, {
    "name": "Abu Simbel Airport",
    "iata": "ABS",
    "icao": "HEBL",
    "lat": 22.37595,
    "lon": 31.611719,
    "country": "Egypt",
    "alt": 616
}, {
    "name": "Abuja Nnamdi Azikiwe International Airport",
    "iata": "ABV",
    "icao": "DNAA",
    "lat": 9.006792,
    "lon": 7.263172,
    "country": "Nigeria",
    "alt": 1123
}, {
    "name": "Acapulco International Airport",
    "iata": "ACA",
    "icao": "MMAA",
    "lat": 16.757059,
    "lon": -99.753899,
    "country": "Mexico",
    "alt": 16
}, {
    "name": "Accra Kotoka International Airport",
    "iata": "ACC",
    "icao": "DGAA",
    "lat": 5.605186,
    "lon": -0.16678,
    "country": "Ghana",
    "alt": 205
}, {
    "name": "Ada Municipal Airport",
    "iata": "ADT",
    "icao": "KADH",
    "lat": 34.804298,
    "lon": -96.671303,
    "country": "United States",
    "alt": 1016
}, {
    "name": "Adak Airport",
    "iata": "ADK",
    "icao": "PADK",
    "lat": 51.87796,
    "lon": -176.645996,
    "country": "United States",
    "alt": 18
}, {
    "name": "Adampur Airport",
    "iata": "AIP",
    "icao": "VIAX",
    "lat": 31.433056,
    "lon": 75.760559,
    "country": "India",
    "alt": 776
}, {
    "name": "Adana Sakirpasa Airport",
    "iata": "ADA",
    "icao": "LTAF",
    "lat": 36.982159,
    "lon": 35.28038,
    "country": "Turkey",
    "alt": 65
}, {
    "name": "Addis Ababa Bole Airport",
    "iata": "ADD",
    "icao": "HAAB",
    "lat": 8.977889,
    "lon": 38.799309,
    "country": "Ethiopia",
    "alt": 7656
}, {
    "name": "Adelaide Airport",
    "iata": "ADL",
    "icao": "YPAD",
    "lat": -34.945,
    "lon": 138.530502,
    "country": "Australia",
    "alt": 20
}, {
    "name": "Aden International Airport",
    "iata": "ADE",
    "icao": "OYAA",
    "lat": 12.82954,
    "lon": 45.02879,
    "country": "Yemen",
    "alt": 7
}, {
    "name": "Adiyaman Airport",
    "iata": "ADF",
    "icao": "LTCP",
    "lat": 37.731361,
    "lon": 38.468929,
    "country": "Turkey",
    "alt": 2216
}, {
    "name": "Adrar Airport",
    "iata": "AZR",
    "icao": "DAUA",
    "lat": 27.83758,
    "lon": -0.18641,
    "country": "Algeria",
    "alt": 919
}, {
    "name": "Afton Municipal Airport",
    "iata": "AFO",
    "icao": "KAFO",
    "lat": 42.711201,
    "lon": -110.942001,
    "country": "United States",
    "alt": 6221
}, {
    "name": "Agadir Al Massira Airport",
    "iata": "AGA",
    "icao": "GMAD",
    "lat": 30.324989,
    "lon": -9.41306,
    "country": "Morocco",
    "alt": 250
}, {
    "name": "Agartala Airport",
    "iata": "IXA",
    "icao": "VEAT",
    "lat": 23.886971,
    "lon": 91.240448,
    "country": "India",
    "alt": 46
}, {
    "name": "Agatti Airport",
    "iata": "AGX",
    "icao": "VOAT",
    "lat": 10.82365,
    "lon": 72.176041,
    "country": "India",
    "alt": 14
}, {
    "name": "Agen La Garenne Airport",
    "iata": "AGF",
    "icao": "LFBA",
    "lat": 44.174709,
    "lon": 0.590619,
    "country": "France",
    "alt": 204
}, {
    "name": "Aghajari Airport",
    "iata": "AKW",
    "icao": "OIAG",
    "lat": 30.7444,
    "lon": 49.6772,
    "country": "Iran",
    "alt": 88
}, {
    "name": "Agra Airport",
    "iata": "AGR",
    "icao": "VIAG",
    "lat": 27.15583,
    "lon": 77.960892,
    "country": "India",
    "alt": 551
}, {
    "name": "Agri Airport",
    "iata": "AJI",
    "icao": "LTCO",
    "lat": 39.65456,
    "lon": 43.027149,
    "country": "Turkey",
    "alt": 5462
}, {
    "name": "Agua Boa Airport",
    "iata": "GGB",
    "icao": "SWHP",
    "lat": -14.019444,
    "lon": -52.152222,
    "country": "Brazil",
    "alt": 1506
}, {
    "name": "Aguadilla Rafael Hernandez Airport",
    "iata": "BQN",
    "icao": "TJBQ",
    "lat": 18.49486,
    "lon": -67.129402,
    "country": "Puerto Rico",
    "alt": 237
}, {
    "name": "Aguascalientes International Airport",
    "iata": "AGU",
    "icao": "MMAS",
    "lat": 21.705549,
    "lon": -102.317001,
    "country": "Mexico",
    "alt": 6112
}, {
    "name": "Ahe Airport",
    "iata": "AHE",
    "icao": "NTHE",
    "lat": -14.42759,
    "lon": -146.255981,
    "country": "French Polynesia",
    "alt": 11
}, {
    "name": "Ahmedabad International Airport",
    "iata": "AMD",
    "icao": "VAAH",
    "lat": 23.07724,
    "lon": 72.634651,
    "country": "India",
    "alt": 189
}, {
    "name": "Ahwaz International Airport",
    "iata": "AWZ",
    "icao": "OIAW",
    "lat": 31.337429,
    "lon": 48.761951,
    "country": "Iran",
    "alt": 66
}, {
    "name": "Aiken Municipal Airport",
    "iata": "AIK",
    "icao": "KAIK",
    "lat": 33.649399,
    "lon": -81.684998,
    "country": "United States",
    "alt": 528
}, {
    "name": "Airai Roman Tmetuchl International Airport",
    "iata": "ROR",
    "icao": "PTRO",
    "lat": 7.367303,
    "lon": 134.544205,
    "country": "Palau",
    "alt": 176
}, {
    "name": "Aitutaki Airport",
    "iata": "AIT",
    "icao": "NCAI",
    "lat": -18.8309,
    "lon": -159.764008,
    "country": "Cook Islands",
    "alt": 14
}, {
    "name": "Aix-en-Provence Airport",
    "iata": "QXB",
    "icao": "LFMA",
    "lat": 43.50528,
    "lon": 5.367222,
    "country": "France",
    "alt": 368
}, {
    "name": "Aizawl Lengpui Airport",
    "iata": "AJL",
    "icao": "VELP",
    "lat": 23.838442,
    "lon": 92.620361,
    "country": "India",
    "alt": 1001
}, {
    "name": "Ajaccio Napoleon Bonaparte Airport",
    "iata": "AJA",
    "icao": "LFKJ",
    "lat": 41.923882,
    "lon": 8.8025,
    "country": "France",
    "alt": 16
}, {
    "name": "Akiak Airport",
    "iata": "AKI",
    "icao": "PFAK",
    "lat": 60.902901,
    "lon": -161.231003,
    "country": "United States",
    "alt": 30
}, {
    "name": "Akita Airport",
    "iata": "AXT",
    "icao": "RJSK",
    "lat": 39.615551,
    "lon": 140.218597,
    "country": "Japan",
    "alt": 313
}, {
    "name": "Akron Canton Airport",
    "iata": "CAK",
    "icao": "KCAK",
    "lat": 40.91608,
    "lon": -81.442101,
    "country": "United States",
    "alt": 1225
}, {
    "name": "Akron Fulton International Airport",
    "iata": "AKC",
    "icao": "KAKR",
    "lat": 41.037498,
    "lon": -81.466904,
    "country": "United States",
    "alt": 1067
}, {
    "name": "Aksu Airport",
    "iata": "AKU",
    "icao": "ZWAK",
    "lat": 41.262501,
    "lon": 80.291664,
    "country": "China",
    "alt": 3816
}, {
    "name": "Aktau Airport",
    "iata": "SCO",
    "icao": "UATE",
    "lat": 43.86005,
    "lon": 51.091969,
    "country": "Kazakhstan",
    "alt": 73
}, {
    "name": "Aktion National Airport",
    "iata": "PVK",
    "icao": "LGPZ",
    "lat": 38.925461,
    "lon": 20.76531,
    "country": "Greece",
    "alt": 11
}, {
    "name": "Aktobe Airport",
    "iata": "AKX",
    "icao": "UATT",
    "lat": 50.245831,
    "lon": 57.206661,
    "country": "Kazakhstan",
    "alt": 738
}, {
    "name": "Akure Airport",
    "iata": "AKR",
    "icao": "DNAK",
    "lat": 7.246739,
    "lon": 5.301008,
    "country": "Nigeria",
    "alt": 1100
}, {
    "name": "Akureyri Airport",
    "iata": "AEY",
    "icao": "BIAR",
    "lat": 65.658607,
    "lon": -18.072201,
    "country": "Iceland",
    "alt": 6
}, {
    "name": "Al Ain International Airport",
    "iata": "AAN",
    "icao": "OMAL",
    "lat": 24.26166,
    "lon": 55.609161,
    "country": "United Arab Emirates",
    "alt": 869
}, {
    "name": "Al Hoceima Cherif Al Idrissi Airport",
    "iata": "AHU",
    "icao": "GMTA",
    "lat": 35.177101,
    "lon": -3.83952,
    "country": "Morocco",
    "alt": 95
}, {
    "name": "Al Najaf International Airport",
    "iata": "NJF",
    "icao": "ORNI",
    "lat": 31.991667,
    "lon": 44.404167,
    "country": "Iraq",
    "alt": 108
}, {
    "name": "Al Udeid Air Base",
    "iata": "XJD",
    "icao": "OTBH",
    "lat": 25.114941,
    "lon": 51.316105,
    "country": "Qatar",
    "alt": 130
}, {
    "name": "Al Ula  Airport",
    "iata": "ULH",
    "icao": "OEAO",
    "lat": 26.480862,
    "lon": 38.116653,
    "country": "Saudi Arabia",
    "alt": 2017
}, {
    "name": "Al Wajh Airport",
    "iata": "EJH",
    "icao": "OEWJ",
    "lat": 26.198334,
    "lon": 36.476112,
    "country": "Saudi Arabia",
    "alt": 66
}, {
    "name": "Al-Baha Domestic Airport",
    "iata": "ABT",
    "icao": "OEBA",
    "lat": 20.296129,
    "lon": 41.63427,
    "country": "Saudi Arabia",
    "alt": 5486
}, {
    "name": "Al-Qamishli Airport",
    "iata": "KAC",
    "icao": "OSKL",
    "lat": 37.031025,
    "lon": 41.205559,
    "country": "Syria",
    "alt": 1480
}, {
    "name": "Al-Qassim Regional Airport",
    "iata": "ELQ",
    "icao": "OEGS",
    "lat": 26.30282,
    "lon": 43.773911,
    "country": "Saudi Arabia",
    "alt": 2126
}, {
    "name": "Alakanuk Airport",
    "iata": "AUK",
    "icao": "PAUK",
    "lat": 62.683056,
    "lon": -164.722198,
    "country": "United States",
    "alt": 22
}, {
    "name": "Alamogordo White Sands Regional Airport",
    "iata": "ALM",
    "icao": "KALM",
    "lat": 32.845833,
    "lon": -105.985275,
    "country": "United States",
    "alt": 4200
}, {
    "name": "Alamosa San Luis Valley Regional Airport",
    "iata": "ALS",
    "icao": "KALS",
    "lat": 37.43491,
    "lon": -105.865997,
    "country": "United States",
    "alt": 7539
}, {
    "name": "Albacete Airport",
    "iata": "ABC",
    "icao": "LEAB",
    "lat": 38.948502,
    "lon": -1.86352,
    "country": "Spain",
    "alt": 2302
}, {
    "name": "Albany Airport",
    "iata": "ALH",
    "icao": "YABA",
    "lat": -34.939999,
    "lon": 117.800003,
    "country": "Australia",
    "alt": 233
}, {
    "name": "Albany International Airport",
    "iata": "ALB",
    "icao": "KALB",
    "lat": 42.749111,
    "lon": -73.801903,
    "country": "United States",
    "alt": 285
}, {
    "name": "Albany Southwest Georgia Regional Airport",
    "iata": "ABY",
    "icao": "KABY",
    "lat": 31.535509,
    "lon": -84.194397,
    "country": "United States",
    "alt": 196
}, {
    "name": "Albenga Clemente Panero International Airport",
    "iata": "ALL",
    "icao": "LIMG",
    "lat": 44.050598,
    "lon": 8.127428,
    "country": "Italy",
    "alt": 148
}, {
    "name": "Albert Picardie Airport",
    "iata": "BYF",
    "icao": "LFAQ",
    "lat": 49.9715,
    "lon": 2.69766,
    "country": "France",
    "alt": 364
}, {
    "name": "Albi Le Sequestre Airport",
    "iata": "LBI",
    "icao": "LFCI",
    "lat": 43.913269,
    "lon": 2.11675,
    "country": "France",
    "alt": 564
}, {
    "name": "Albuquerque International Airport",
    "iata": "ABQ",
    "icao": "KABQ",
    "lat": 35.040218,
    "lon": -106.609001,
    "country": "United States",
    "alt": 5355
}, {
    "name": "Albury Airport",
    "iata": "ABX",
    "icao": "YMAY",
    "lat": -36.067699,
    "lon": 146.957993,
    "country": "Australia",
    "alt": 539
}, {
    "name": "Aldan Airport",
    "iata": "ADH",
    "icao": "UEEA",
    "lat": 58.602772,
    "lon": 125.408798,
    "country": "Russia",
    "alt": 2241
}, {
    "name": "Alderney Airport",
    "iata": "ACI",
    "icao": "EGJA",
    "lat": 49.706108,
    "lon": -2.21472,
    "country": "United Kingdom",
    "alt": 290
}, {
    "name": "Aleppo International Airport",
    "iata": "ALP",
    "icao": "OSAP",
    "lat": 36.180672,
    "lon": 37.22435,
    "country": "Syria",
    "alt": 1276
}, {
    "name": "Alesund Vigra Airport",
    "iata": "AES",
    "icao": "ENAL",
    "lat": 62.560371,
    "lon": 6.110164,
    "country": "Norway",
    "alt": 69
}, {
    "name": "Alexander City Thomas C Russell Field",
    "iata": "ALX",
    "icao": "KALX",
    "lat": 32.933334,
    "lon": -85.949997,
    "country": "United States",
    "alt": 686
}, {
    "name": "Alexandria Borg El Arab Airport",
    "iata": "HBE",
    "icao": "HEBA",
    "lat": 30.91766,
    "lon": 29.6964,
    "country": "Egypt",
    "alt": 177
}, {
    "name": "Alexandria International Airport",
    "iata": "AEX",
    "icao": "KAEX",
    "lat": 31.32737,
    "lon": -92.5485,
    "country": "United States",
    "alt": 89
}, {
    "name": "Alexandria Municipal Airport",
    "iata": "AXN",
    "icao": "KAXN",
    "lat": 45.867222,
    "lon": -95.394165,
    "country": "United States",
    "alt": 1425
}, {
    "name": "Alexandroupolis International Airport",
    "iata": "AXD",
    "icao": "LGAL",
    "lat": 40.855862,
    "lon": 25.956261,
    "country": "Greece",
    "alt": 24
}, {
    "name": "Algeciras Heliport",
    "iata": "QYH",
    "icao": "LEAG",
    "lat": 36.128887,
    "lon": -5.441111,
    "country": "Spain",
    "alt": 98
}, {
    "name": "Alghero Fertilia Airport",
    "iata": "AHO",
    "icao": "LIEA",
    "lat": 40.63213,
    "lon": 8.290772,
    "country": "Italy",
    "alt": 87
}, {
    "name": "Algiers Houari Boumediene Airport",
    "iata": "ALG",
    "icao": "DAAG",
    "lat": 36.69101,
    "lon": 3.215408,
    "country": "Algeria",
    "alt": 82
}, {
    "name": "Alicante Airport",
    "iata": "ALC",
    "icao": "LEAL",
    "lat": 38.282162,
    "lon": -0.55815,
    "country": "Spain",
    "alt": 142
}, {
    "name": "Alice International Airport",
    "iata": "ALI",
    "icao": "KALI",
    "lat": 27.740879,
    "lon": -98.026901,
    "country": "United States",
    "alt": 178
}, {
    "name": "Alice Springs Airport",
    "iata": "ASP",
    "icao": "YBAS",
    "lat": -23.806601,
    "lon": 133.902206,
    "country": "Australia",
    "alt": 1789
}, {
    "name": "Allahabad Airport",
    "iata": "IXD",
    "icao": "VIAL",
    "lat": 25.44006,
    "lon": 81.733871,
    "country": "India",
    "alt": 322
}, {
    "name": "Allakaket Airport",
    "iata": "AET",
    "icao": "PFAL",
    "lat": 66.551804,
    "lon": -152.621994,
    "country": "United States",
    "alt": 441
}, {
    "name": "Allendorf Airport",
    "iata": "QEQ",
    "icao": "EDFQ",
    "lat": 51.035713,
    "lon": 8.679523,
    "country": "Germany",
    "alt": 1164
}, {
    "name": "Allentown Lehigh Valley International Airport",
    "iata": "ABE",
    "icao": "KABE",
    "lat": 40.652302,
    "lon": -75.440399,
    "country": "United States",
    "alt": 393
}, {
    "name": "Alliance Municipal Airport",
    "iata": "AIA",
    "icao": "KAIA",
    "lat": 42.053219,
    "lon": -102.803001,
    "country": "United States",
    "alt": 3931
}, {
    "name": "Alma Airport",
    "iata": "YTF",
    "icao": "CYTF",
    "lat": 48.509655,
    "lon": -71.642715,
    "country": "Canada",
    "alt": 434
}, {
    "name": "Almaty International Airport",
    "iata": "ALA",
    "icao": "UAAA",
    "lat": 43.35207,
    "lon": 77.040497,
    "country": "Kazakhstan",
    "alt": 2234
}, {
    "name": "Almeria Airport",
    "iata": "LEI",
    "icao": "LEAM",
    "lat": 36.843929,
    "lon": -2.37009,
    "country": "Spain",
    "alt": 70
}, {
    "name": "Alor Island Airport",
    "iata": "ARD",
    "icao": "WATM",
    "lat": -8.13234,
    "lon": 124.597,
    "country": "Indonesia",
    "alt": 10
}, {
    "name": "Alor Setar Sultan Abdul Halim Airport",
    "iata": "AOR",
    "icao": "WMKA",
    "lat": 6.189667,
    "lon": 100.398102,
    "country": "Malaysia",
    "alt": 15
}, {
    "name": "Alpena County Regional Airport",
    "iata": "APN",
    "icao": "KAPN",
    "lat": 45.081669,
    "lon": -83.555832,
    "country": "United States",
    "alt": 689
}, {
    "name": "Alta Airport",
    "iata": "ALF",
    "icao": "ENAT",
    "lat": 69.976112,
    "lon": 23.37166,
    "country": "Norway",
    "alt": 9
}, {
    "name": "Alta Floresta Airport",
    "iata": "AFL",
    "icao": "SBAT",
    "lat": -9.86609,
    "lon": -56.106201,
    "country": "Brazil",
    "alt": 947
}, {
    "name": "Altai Airport",
    "iata": "LTI",
    "icao": "ZMAT",
    "lat": 46.650002,
    "lon": 96.416664,
    "country": "Mongolia",
    "alt": 7261
}, {
    "name": "Altamira Airport",
    "iata": "ATM",
    "icao": "SBHT",
    "lat": -3.2539,
    "lon": -52.253899,
    "country": "Brazil",
    "alt": 368
}, {
    "name": "Altay Airport",
    "iata": "AAT",
    "icao": "ZWAT",
    "lat": 47.750362,
    "lon": 88.084442,
    "country": "China",
    "alt": 1750
}, {
    "name": "Altenstadt Air Base",
    "iata": "QCA",
    "icao": "ETHA",
    "lat": 47.835518,
    "lon": 10.870574,
    "country": "Germany",
    "alt": 2423
}, {
    "name": "Alton St. Louis Regional Airport",
    "iata": "ALN",
    "icao": "KALN",
    "lat": 38.890301,
    "lon": -90.045998,
    "country": "United States",
    "alt": 544
}, {
    "name": "Altoona Blair County Airport",
    "iata": "AOO",
    "icao": "KAOO",
    "lat": 40.296371,
    "lon": -78.32,
    "country": "United States",
    "alt": 1503
}, {
    "name": "Alzintan Airport",
    "iata": "ZIS",
    "icao": "HLZN",
    "lat": 31.775,
    "lon": 12.25,
    "country": "Libya",
    "alt": 2080
}, {
    "name": "Amakusa Airport",
    "iata": "AXJ",
    "icao": "RJDA",
    "lat": 32.483261,
    "lon": 130.15564,
    "country": "Japan",
    "alt": 328
}, {
    "name": "Amami Airport",
    "iata": "ASJ",
    "icao": "RJKA",
    "lat": 28.43063,
    "lon": 129.712494,
    "country": "Japan",
    "alt": 27
}, {
    "name": "Amarillo Rick Husband  International Airport",
    "iata": "AMA",
    "icao": "KAMA",
    "lat": 35.21936,
    "lon": -101.705002,
    "country": "United States",
    "alt": 3607
}, {
    "name": "Amarillo Tradewind Airport",
    "iata": "TDW",
    "icao": "KTDW",
    "lat": 35.169899,
    "lon": -101.825996,
    "country": "United States",
    "alt": 3649
}, {
    "name": "Ambler Airport",
    "iata": "ABL",
    "icao": "PAFM",
    "lat": 67.087502,
    "lon": -157.84584,
    "country": "United States",
    "alt": 289
}, {
    "name": "Ambon Pattimura Airport",
    "iata": "AMQ",
    "icao": "WAPP",
    "lat": -3.71026,
    "lon": 128.089096,
    "country": "Indonesia",
    "alt": 33
}, {
    "name": "Amboseli Airport",
    "iata": "ASV",
    "icao": "HKAM",
    "lat": -2.633,
    "lon": 37.25,
    "country": "Kenya",
    "alt": 3755
}, {
    "name": "Ames Municipal Airport",
    "iata": "AMW",
    "icao": "KAMW",
    "lat": 41.992001,
    "lon": -93.621803,
    "country": "United States",
    "alt": 956
}, {
    "name": "Amman Civil Airport",
    "iata": "ADJ",
    "icao": "OJAM",
    "lat": 31.9727,
    "lon": 35.991562,
    "country": "Jordan",
    "alt": 2555
}, {
    "name": "Amman Queen Alia International Airport",
    "iata": "AMM",
    "icao": "OJAI",
    "lat": 31.722549,
    "lon": 35.99321,
    "country": "Jordan",
    "alt": 2395
}, {
    "name": "Amritsar International Airport",
    "iata": "ATQ",
    "icao": "VIAR",
    "lat": 31.709591,
    "lon": 74.797256,
    "country": "India",
    "alt": 756
}, {
    "name": "Amsterdam Schiphol Airport",
    "iata": "AMS",
    "icao": "EHAM",
    "lat": 52.308609,
    "lon": 4.763889,
    "country": "Netherlands",
    "alt": 11
}, {
    "name": "Anadyr Ugolny Airport",
    "iata": "DYR",
    "icao": "UHMA",
    "lat": 64.730003,
    "lon": 177.740005,
    "country": "Russia",
    "alt": 194
}, {
    "name": "Anaktuvuk Pass Airport",
    "iata": "AKP",
    "icao": "PAKP",
    "lat": 68.129997,
    "lon": -151.740005,
    "country": "United States",
    "alt": 2106
}, {
    "name": "Anapa Airport",
    "iata": "AAQ",
    "icao": "URKA",
    "lat": 45.00209,
    "lon": 37.347271,
    "country": "Russia",
    "alt": 174
}, {
    "name": "Anchorage Elmendorf Air Force Base",
    "iata": "EDF",
    "icao": "PAED",
    "lat": 61.251339,
    "lon": -149.806,
    "country": "United States",
    "alt": 213
}, {
    "name": "Anchorage Merrill Field Airport",
    "iata": "MRI",
    "icao": "PAMR",
    "lat": 61.213539,
    "lon": -149.843994,
    "country": "United States",
    "alt": 137
}, {
    "name": "Anchorage Ted Stevens International Airport",
    "iata": "ANC",
    "icao": "PANC",
    "lat": 61.174358,
    "lon": -149.996002,
    "country": "United States",
    "alt": 151
}, {
    "name": "Ancona Airport",
    "iata": "AOI",
    "icao": "LIPY",
    "lat": 43.616341,
    "lon": 13.36231,
    "country": "Italy",
    "alt": 49
}, {
    "name": "Andal Kazi Nazrul Islam Airport",
    "iata": "RDP",
    "icao": "VEDG",
    "lat": 23.621389,
    "lon": 87.243332,
    "country": "India",
    "alt": 289
}, {
    "name": "Andenes Andoya Airport",
    "iata": "ANX",
    "icao": "ENAN",
    "lat": 69.292503,
    "lon": 16.144159,
    "country": "Norway",
    "alt": 43
}, {
    "name": "Anderson Regional Airport",
    "iata": "AND",
    "icao": "KAND",
    "lat": 34.494579,
    "lon": -82.709297,
    "country": "United States",
    "alt": 782
}, {
    "name": "Andizhan Airport",
    "iata": "AZN",
    "icao": "UTFA",
    "lat": 40.72773,
    "lon": 72.294006,
    "country": "Uzbekistan",
    "alt": 1515
}, {
    "name": "Andros Town International Airport",
    "iata": "ASD",
    "icao": "MYAF",
    "lat": 24.69828,
    "lon": -77.795601,
    "country": "Bahamas",
    "alt": 5
}, {
    "name": "Anegada Auguste George Airport",
    "iata": "NGD",
    "icao": "TUPA",
    "lat": 18.727394,
    "lon": -64.330055,
    "country": "Virgin Islands, British",
    "alt": 21
}, {
    "name": "Angeles City Clark International Airport",
    "iata": "CRK",
    "icao": "RPLC",
    "lat": 15.18598,
    "lon": 120.560303,
    "country": "Philippines",
    "alt": 484
}, {
    "name": "Angelholm Helsingborg Airport",
    "iata": "AGH",
    "icao": "ESTA",
    "lat": 56.29607,
    "lon": 12.84713,
    "country": "Sweden",
    "alt": 68
}, {
    "name": "Angers Loire Airport",
    "iata": "ANE",
    "icao": "LFJR",
    "lat": 47.56028,
    "lon": -0.312222,
    "country": "France",
    "alt": 194
}, {
    "name": "Anglesey Airport",
    "iata": "VLY",
    "icao": "EGOV",
    "lat": 53.240002,
    "lon": -4.53,
    "country": "United Kingdom",
    "alt": "-1"
}, {
    "name": "Angola Tri-State Steuben County Airport",
    "iata": "ANQ",
    "icao": "KANQ",
    "lat": 41.639702,
    "lon": -85.083504,
    "country": "United States",
    "alt": 995
}, {
    "name": "Angouleme Cognac International Airport",
    "iata": "ANG",
    "icao": "LFBU",
    "lat": 45.729469,
    "lon": 0.219153,
    "country": "France",
    "alt": 436
}, {
    "name": "Angra dos Reis Airport",
    "iata": "GDR",
    "icao": "SDAG",
    "lat": -22.975279,
    "lon": -44.30722,
    "country": "Brazil",
    "alt": 10
}, {
    "name": "Aniak Airport",
    "iata": "ANI",
    "icao": "PANI",
    "lat": 61.581669,
    "lon": -159.54306,
    "country": "United States",
    "alt": 89
}, {
    "name": "Anjouan Ouani Airport",
    "iata": "AJN",
    "icao": "FMCV",
    "lat": -12.1316,
    "lon": 44.430271,
    "country": "Comoros",
    "alt": 62
}, {
    "name": "Ankara Esenboga International Airport",
    "iata": "ESB",
    "icao": "LTAC",
    "lat": 40.128078,
    "lon": 32.995079,
    "country": "Turkey",
    "alt": 3125
}, {
    "name": "Ankeny Regional Airport",
    "iata": "QQK",
    "icao": "KIKV",
    "lat": 41.691113,
    "lon": -93.566391,
    "country": "United States",
    "alt": 910
}, {
    "name": "Ann Airport",
    "iata": "VBA",
    "icao": "VYAN",
    "lat": 19.770643,
    "lon": 94.026405,
    "country": "Myanmar (Burma)",
    "alt": 43
}, {
    "name": "Ann Arbor Municipal Airport",
    "iata": "ARB",
    "icao": "KARB",
    "lat": 42.223057,
    "lon": -83.74556,
    "country": "United States",
    "alt": 839
}, {
    "name": "Annaba Rabah Bitat Airport",
    "iata": "AAE",
    "icao": "DABB",
    "lat": 36.82222,
    "lon": 7.809167,
    "country": "Algeria",
    "alt": 16
}, {
    "name": "Annapolis Lee Airport",
    "iata": "ANP",
    "icao": "KANP",
    "lat": 38.942902,
    "lon": -76.568398,
    "country": "United States",
    "alt": 34
}, {
    "name": "Annecy Mont Blanc Airport",
    "iata": "NCY",
    "icao": "LFLP",
    "lat": 45.930771,
    "lon": 6.106289,
    "country": "France",
    "alt": 1519
}, {
    "name": "Annemasse Airport",
    "iata": "QYA",
    "icao": "LFLI",
    "lat": 46.19194,
    "lon": 6.269444,
    "country": "France",
    "alt": 1617
}, {
    "name": "Anniston Regional",
    "iata": "ANB",
    "icao": "KANB",
    "lat": 33.588161,
    "lon": -85.858101,
    "country": "United States",
    "alt": 612
}, {
    "name": "Anqing Tianzhushan Airport",
    "iata": "AQG",
    "icao": "ZSAQ",
    "lat": 30.582222,
    "lon": 117.050278,
    "country": "China",
    "alt": "-1"
}, {
    "name": "Anshan Teng'ao Airport",
    "iata": "AOG",
    "icao": "ZYAS",
    "lat": 41.103523,
    "lon": 122.855835,
    "country": "China",
    "alt": 53
}, {
    "name": "Anshun Huangguoshu Airport",
    "iata": "AVA",
    "icao": "ZUAS",
    "lat": 26.260555,
    "lon": 105.873337,
    "country": "China",
    "alt": 4812
}, {
    "name": "Antakya Hatay Airport",
    "iata": "HTY",
    "icao": "LTDA",
    "lat": 36.362778,
    "lon": 36.282223,
    "country": "Turkey",
    "alt": 25
}, {
    "name": "Antalya Airport",
    "iata": "AYT",
    "icao": "LTAI",
    "lat": 36.898731,
    "lon": 30.800461,
    "country": "Turkey",
    "alt": 177
}, {
    "name": "Antananarivo Ivato International Airport",
    "iata": "TNR",
    "icao": "FMMI",
    "lat": -18.7969,
    "lon": 47.478802,
    "country": "Madagascar",
    "alt": 4198
}, {
    "name": "Antigua V. C. Bird International Airport",
    "iata": "ANU",
    "icao": "TAPA",
    "lat": 17.13674,
    "lon": -61.792599,
    "country": "Antigua And Barbuda",
    "alt": 62
}, {
    "name": "Antofagasta International Airport",
    "iata": "ANF",
    "icao": "SCFA",
    "lat": -23.444401,
    "lon": -70.445099,
    "country": "Chile",
    "alt": 455
}, {
    "name": "Antsiranana Arrachart Airport",
    "iata": "DIE",
    "icao": "FMNA",
    "lat": -12.3494,
    "lon": 49.29174,
    "country": "Madagascar",
    "alt": 374
}, {
    "name": "Antwerp International Airport",
    "iata": "ANR",
    "icao": "EBAW",
    "lat": 51.189442,
    "lon": 4.460278,
    "country": "Belgium",
    "alt": 39
}, {
    "name": "Anvik Airport",
    "iata": "ANV",
    "icao": "PANV",
    "lat": 62.647778,
    "lon": -160.188889,
    "country": "United States",
    "alt": 309
}, {
    "name": "Aomori Airport",
    "iata": "AOJ",
    "icao": "RJSA",
    "lat": 40.734718,
    "lon": 140.690796,
    "country": "Japan",
    "alt": 664
}, {
    "name": "Aosta Airport",
    "iata": "AOT",
    "icao": "LIMW",
    "lat": 45.738499,
    "lon": 7.36872,
    "country": "Italy",
    "alt": 1791
}, {
    "name": "Apalachicola Regional Airport",
    "iata": "AAF",
    "icao": "KAAF",
    "lat": 29.733334,
    "lon": -84.98333,
    "country": "United States",
    "alt": 20
}, {
    "name": "Apartado Airport",
    "iata": "APO",
    "icao": "SKLC",
    "lat": 7.817678,
    "lon": -76.717659,
    "country": "Colombia",
    "alt": 46
}, {
    "name": "Apatity Airport",
    "iata": "KVK",
    "icao": "ULMK",
    "lat": 67.463303,
    "lon": 33.588299,
    "country": "Russia",
    "alt": 515
}, {
    "name": "Apia Faleolo International Airport",
    "iata": "APW",
    "icao": "NSFA",
    "lat": -13.8296,
    "lon": -171.996994,
    "country": "Samoa",
    "alt": 58
}, {
    "name": "Apple Valley Airport",
    "iata": "APV",
    "icao": "KAPV",
    "lat": 34.575298,
    "lon": -117.185997,
    "country": "United States",
    "alt": 3062
}, {
    "name": "Appleton International Airport",
    "iata": "ATW",
    "icao": "KATW",
    "lat": 44.258091,
    "lon": -88.518997,
    "country": "United States",
    "alt": 918
}, {
    "name": "Apucarana Airport",
    "iata": "APU",
    "icao": "SSAP",
    "lat": -23.609501,
    "lon": -51.384499,
    "country": "Brazil",
    "alt": 2641
}, {
    "name": "Aqaba King Hussein International Airport",
    "iata": "AQJ",
    "icao": "OJAQ",
    "lat": 29.61161,
    "lon": 35.018059,
    "country": "Jordan",
    "alt": 175
}, {
    "name": "Aracaju Santa Maria Airport",
    "iata": "AJU",
    "icao": "SBAR",
    "lat": -10.984,
    "lon": -37.070301,
    "country": "Brazil",
    "alt": 23
}, {
    "name": "Aracati Airport",
    "iata": "ARX",
    "icao": "SBAC",
    "lat": -4.56861,
    "lon": -37.804722,
    "country": "Brazil",
    "alt": 128
}, {
    "name": "Aracatuba Airport",
    "iata": "ARU",
    "icao": "SBAU",
    "lat": -21.1413,
    "lon": -50.424702,
    "country": "Brazil",
    "alt": 1361
}, {
    "name": "Arad International Airport",
    "iata": "ARW",
    "icao": "LRAR",
    "lat": 46.176552,
    "lon": 21.26202,
    "country": "Romania",
    "alt": 352
}, {
    "name": "Araguaina Airport",
    "iata": "AUX",
    "icao": "SWGN",
    "lat": -7.227867,
    "lon": -48.240467,
    "country": "Brazil",
    "alt": 771
}, {
    "name": "Arak Airport",
    "iata": "AJK",
    "icao": "OIHR",
    "lat": 34.1381,
    "lon": 49.847301,
    "country": "Iran",
    "alt": 5440
}, {
    "name": "Arapongas Airport",
    "iata": "APX",
    "icao": "SSOG",
    "lat": -23.3529,
    "lon": -51.491699,
    "country": "Brazil",
    "alt": 2599
}, {
    "name": "Arar Domestic Airport",
    "iata": "RAE",
    "icao": "OERR",
    "lat": 30.90658,
    "lon": 41.13821,
    "country": "Saudi Arabia",
    "alt": 1813
}, {
    "name": "Araraquara Airport",
    "iata": "AQA",
    "icao": "SBAQ",
    "lat": -21.812,
    "lon": -48.132999,
    "country": "Brazil",
    "alt": 2334
}, {
    "name": "Arauca Santiago Perez Quiroz Airport",
    "iata": "AUC",
    "icao": "SKUC",
    "lat": 7.068889,
    "lon": -70.7369,
    "country": "Colombia",
    "alt": 420
}, {
    "name": "Araxa Airport",
    "iata": "AAX",
    "icao": "SBAX",
    "lat": -19.562658,
    "lon": -46.961014,
    "country": "Brazil",
    "alt": 3247
}, {
    "name": "Arba Minch Airport",
    "iata": "AMH",
    "icao": "HAAM",
    "lat": 6.039389,
    "lon": 37.59045,
    "country": "Ethiopia",
    "alt": 3895
}, {
    "name": "Arcachon La Teste-de-Buch Airport",
    "iata": "XAC",
    "icao": "LFCH",
    "lat": 44.59861,
    "lon": -1.11472,
    "country": "France",
    "alt": 49
}, {
    "name": "Arcata Eureka Airport",
    "iata": "ACV",
    "icao": "KACV",
    "lat": 40.978111,
    "lon": -124.108002,
    "country": "United States",
    "alt": 222
}, {
    "name": "Arctic Bay Airport",
    "iata": "YAB",
    "icao": "CYAB",
    "lat": 73.006386,
    "lon": -85.047218,
    "country": "Canada",
    "alt": 72
}, {
    "name": "Arctic Village",
    "iata": "ARC",
    "icao": "PARC",
    "lat": 68.110001,
    "lon": -145.570007,
    "country": "United States",
    "alt": 2092
}, {
    "name": "Ardabil Airport",
    "iata": "ADU",
    "icao": "OITL",
    "lat": 38.323826,
    "lon": 48.421249,
    "country": "Iran",
    "alt": 4317
}, {
    "name": "Ardmore Airport",
    "iata": "AMZ",
    "icao": "NZAR",
    "lat": -37.029701,
    "lon": 174.973007,
    "country": "New Zealand",
    "alt": 111
}, {
    "name": "Ardmore Municipal Airport",
    "iata": "ADM",
    "icao": "KADM",
    "lat": 34.303009,
    "lon": -97.0196,
    "country": "United States",
    "alt": 776
}, {
    "name": "Arendal Gullknapp Airport",
    "iata": "QCG",
    "icao": "ENGK",
    "lat": 58.518326,
    "lon": 8.707467,
    "country": "Norway",
    "alt": 405
}, {
    "name": "Arequipa Rodriguez Ballon International Airport",
    "iata": "AQP",
    "icao": "SPQU",
    "lat": -16.341,
    "lon": -71.583,
    "country": "Peru",
    "alt": 8405
}, {
    "name": "Argyle Airport",
    "iata": "GYL",
    "icao": "YARG",
    "lat": -16.629999,
    "lon": 128.449997,
    "country": "Australia",
    "alt": 522
}, {
    "name": "Arica Chacalluta International Airport",
    "iata": "ARI",
    "icao": "SCAR",
    "lat": -18.348499,
    "lon": -70.338699,
    "country": "Chile",
    "alt": 167
}, {
    "name": "Arkhangelsk Talagi Airport",
    "iata": "ARH",
    "icao": "ULAA",
    "lat": 64.600281,
    "lon": 40.71666,
    "country": "Russia",
    "alt": 62
}, {
    "name": "Arlington Municipal Airport",
    "iata": "QQW",
    "icao": "KAWO",
    "lat": 48.160831,
    "lon": -122.15889,
    "country": "United States",
    "alt": 142
}, {
    "name": "Arlington Municipal Airport",
    "iata": "QQG",
    "icao": "KGKY",
    "lat": 32.66,
    "lon": -97.089996,
    "country": "United States",
    "alt": 628
}, {
    "name": "Armenia El Eden International Airport",
    "iata": "AXM",
    "icao": "SKAR",
    "lat": 4.453333,
    "lon": -75.7658,
    "country": "Colombia",
    "alt": 3990
}, {
    "name": "Armidale Airport",
    "iata": "ARM",
    "icao": "YARM",
    "lat": -30.528334,
    "lon": 151.616669,
    "country": "Australia",
    "alt": 3556
}, {
    "name": "Artesia Municipal Airport",
    "iata": "ATS",
    "icao": "KATS",
    "lat": 32.852501,
    "lon": -104.468002,
    "country": "United States",
    "alt": 3541
}, {
    "name": "Arthur's Town Airport",
    "iata": "ATC",
    "icao": "MYCA",
    "lat": 24.628611,
    "lon": -75.671387,
    "country": "Bahamas",
    "alt": 18
}, {
    "name": "Arusha Airport",
    "iata": "ARK",
    "icao": "HTAR",
    "lat": -3.36779,
    "lon": 36.633331,
    "country": "Tanzania",
    "alt": 4550
}, {
    "name": "Arutua Airport",
    "iata": "AXR",
    "icao": "NTGU",
    "lat": -15.2463,
    "lon": -146.619995,
    "country": "French Polynesia",
    "alt": 9
}, {
    "name": "Arviat Airport",
    "iata": "YEK",
    "icao": "CYEK",
    "lat": 61.094158,
    "lon": -94.070801,
    "country": "Canada",
    "alt": 32
}, {
    "name": "Arvidsjaur Airport",
    "iata": "AJR",
    "icao": "ESNX",
    "lat": 65.590271,
    "lon": 19.28194,
    "country": "Sweden",
    "alt": 1245
}, {
    "name": "Arxan Yiershi Airport",
    "iata": "YIE",
    "icao": "ZBES",
    "lat": 47.310555,
    "lon": 119.911942,
    "country": "China",
    "alt": 2918
}, {
    "name": "Asaba International Airport",
    "iata": "ABB",
    "icao": "DNAS",
    "lat": 6.203055,
    "lon": 6.667222,
    "country": "Nigeria",
    "alt": 242
}, {
    "name": "Asahikawa Airport",
    "iata": "AKJ",
    "icao": "RJEC",
    "lat": 43.67083,
    "lon": 142.447495,
    "country": "Japan",
    "alt": 721
}, {
    "name": "Ascension Island Airport",
    "iata": "ASI",
    "icao": "FHAW",
    "lat": -7.9696,
    "lon": -14.3937,
    "country": "Saint Helena",
    "alt": 278
}, {
    "name": "Asheville Regional Airport",
    "iata": "AVL",
    "icao": "KAVL",
    "lat": 35.436192,
    "lon": -82.541801,
    "country": "United States",
    "alt": 2164
}, {
    "name": "Ashgabat International Airport",
    "iata": "ASB",
    "icao": "UTAA",
    "lat": 37.986809,
    "lon": 58.360958,
    "country": "Turkmenistan",
    "alt": 692
}, {
    "name": "Asmara International Airport",
    "iata": "ASM",
    "icao": "HHAS",
    "lat": 15.29185,
    "lon": 38.91066,
    "country": "Eritrea",
    "alt": 7661
}, {
    "name": "Asosa Airport",
    "iata": "ASO",
    "icao": "HASO",
    "lat": 10.01855,
    "lon": 34.58625,
    "country": "Ethiopia",
    "alt": 5120
}, {
    "name": "Aspen Pitkin County Airport",
    "iata": "ASE",
    "icao": "KASE",
    "lat": 39.22316,
    "lon": -106.867996,
    "country": "United States",
    "alt": 7838
}, {
    "name": "Assaluyeh Persian Gulf Airport",
    "iata": "PGU",
    "icao": "OIBP",
    "lat": 27.383959,
    "lon": 52.735516,
    "country": "Iran",
    "alt": 40
}, {
    "name": "Assiut Airport",
    "iata": "ATZ",
    "icao": "HEAT",
    "lat": 27.046499,
    "lon": 31.01198,
    "country": "Egypt",
    "alt": 772
}, {
    "name": "Astoria Regional Airport",
    "iata": "AST",
    "icao": "KAST",
    "lat": 46.159721,
    "lon": -123.879997,
    "country": "United States",
    "alt": 15
}, {
    "name": "Astrakhan Narimanovo Airport",
    "iata": "ASF",
    "icao": "URWA",
    "lat": 46.283329,
    "lon": 48.006271,
    "country": "Russia",
    "alt": 65
}, {
    "name": "Asturias Airport",
    "iata": "OVD",
    "icao": "LEAS",
    "lat": 43.56356,
    "lon": -6.03462,
    "country": "Spain",
    "alt": 416
}, {
    "name": "Astypalaia Island National Airport",
    "iata": "JTY",
    "icao": "LGPL",
    "lat": 36.579887,
    "lon": 26.375822,
    "country": "Greece",
    "alt": 165
}, {
    "name": "Asuncion Silvio Pettirossi International Airport",
    "iata": "ASU",
    "icao": "SGAS",
    "lat": -25.239799,
    "lon": -57.5191,
    "country": "Paraguay",
    "alt": 292
}, {
    "name": "Aswan International Airport",
    "iata": "ASW",
    "icao": "HESN",
    "lat": 23.96435,
    "lon": 32.819969,
    "country": "Egypt",
    "alt": 662
}, {
    "name": "Atambua Haliwen Airport",
    "iata": "ABU",
    "icao": "WATA",
    "lat": -9.07444,
    "lon": 124.904404,
    "country": "Indonesia",
    "alt": 75
}, {
    "name": "Athens Ben Epps Airport",
    "iata": "AHN",
    "icao": "KAHN",
    "lat": 33.95195,
    "lon": -83.324722,
    "country": "United States",
    "alt": 808
}, {
    "name": "Athens Eleftherios Venizelos",
    "iata": "ATH",
    "icao": "LGAV",
    "lat": 37.936352,
    "lon": 23.94446,
    "country": "Greece",
    "alt": 308
}, {
    "name": "Athens Gordon K. Bush Airport",
    "iata": "ATO",
    "icao": "KUNI",
    "lat": 39.210999,
    "lon": -82.2314,
    "country": "United States",
    "alt": 766
}, {
    "name": "Athens McMinn County Airport",
    "iata": "MMI",
    "icao": "KMMI",
    "lat": 35.397221,
    "lon": -84.5625,
    "country": "United States",
    "alt": 858
}, {
    "name": "Atlanta Cobb County Airport",
    "iata": "QQR",
    "icao": "KRYY",
    "lat": 34.013058,
    "lon": -84.59861,
    "country": "United States",
    "alt": 1040
}, {
    "name": "Atlanta DeKalb Peachtree Airport",
    "iata": "PDK",
    "icao": "KPDK",
    "lat": 33.869999,
    "lon": -84.300003,
    "country": "United States",
    "alt": 1003
}, {
    "name": "Atlanta Fulton County Airport",
    "iata": "FTY",
    "icao": "KFTY",
    "lat": 33.777195,
    "lon": -84.521141,
    "country": "United States",
    "alt": 821
}, {
    "name": "Atlanta Hartsfield-Jackson International Airport",
    "iata": "ATL",
    "icao": "KATL",
    "lat": 33.636719,
    "lon": -84.428001,
    "country": "United States",
    "alt": 1026
}, {
    "name": "Atlantic City International Airport",
    "iata": "ACY",
    "icao": "KACY",
    "lat": 39.457581,
    "lon": -74.577103,
    "country": "United States",
    "alt": 74
}, {
    "name": "Atlantic City Monmouth Executive Airport",
    "iata": "BLM",
    "icao": "KBLM",
    "lat": 40.186668,
    "lon": -74.124443,
    "country": "United States",
    "alt": 153
}, {
    "name": "Atqasuk Airport",
    "iata": "ATK",
    "icao": "PATQ",
    "lat": 70.5,
    "lon": -157.333328,
    "country": "United States",
    "alt": 96
}, {
    "name": "Attawapiskat Airport",
    "iata": "YAT",
    "icao": "CYAT",
    "lat": 52.919998,
    "lon": -82.43,
    "country": "Canada",
    "alt": 31
}, {
    "name": "Atuona Airport",
    "iata": "AUQ",
    "icao": "NTMN",
    "lat": -9.76879,
    "lon": -139.011002,
    "country": "French Polynesia",
    "alt": 1481
}, {
    "name": "Atwater Castle Airport",
    "iata": "MER",
    "icao": "KMER",
    "lat": 37.380482,
    "lon": -120.568001,
    "country": "United States",
    "alt": 191
}, {
    "name": "Atyrau Airport",
    "iata": "GUW",
    "icao": "UATG",
    "lat": 47.121941,
    "lon": 51.821381,
    "country": "Kazakhstan",
    "alt": 72
}, {
    "name": "Auburn Airport",
    "iata": "LEW",
    "icao": "KLEW",
    "lat": 44.048611,
    "lon": -70.283607,
    "country": "United States",
    "alt": 288
}, {
    "name": "Auburn Municipal Airport",
    "iata": "AUN",
    "icao": "KAUN",
    "lat": 38.9548,
    "lon": -121.082001,
    "country": "United States",
    "alt": 1539
}, {
    "name": "Auburn University Regional Airport",
    "iata": "AUO",
    "icao": "KAUO",
    "lat": 32.615101,
    "lon": -85.433998,
    "country": "United States",
    "alt": 777
}, {
    "name": "Auckland Airport",
    "iata": "AKL",
    "icao": "NZAA",
    "lat": -37.007999,
    "lon": 174.791595,
    "country": "New Zealand",
    "alt": 23
}, {
    "name": "Augsburg Airport",
    "iata": "AGB",
    "icao": "EDMA",
    "lat": 48.425152,
    "lon": 10.93176,
    "country": "Germany",
    "alt": 1515
}, {
    "name": "Augusta Daniel Field Airport",
    "iata": "DNL",
    "icao": "KDNL",
    "lat": 33.468098,
    "lon": -82.0392,
    "country": "United States",
    "alt": 414
}, {
    "name": "Augusta Regional Airport",
    "iata": "AGS",
    "icao": "KAGS",
    "lat": 33.369942,
    "lon": -81.9645,
    "country": "United States",
    "alt": 144
}, {
    "name": "Augusta State Airport",
    "iata": "AUG",
    "icao": "KAUG",
    "lat": 44.320648,
    "lon": -69.797302,
    "country": "United States",
    "alt": 352
}, {
    "name": "Aupaluk Airport",
    "iata": "YPJ",
    "icao": "CYLA",
    "lat": 59.296665,
    "lon": -69.599724,
    "country": "Canada",
    "alt": 117
}, {
    "name": "Aurangabad Airport",
    "iata": "IXU",
    "icao": "VAAU",
    "lat": 19.86272,
    "lon": 75.398109,
    "country": "India",
    "alt": 1911
}, {
    "name": "Aurillac Tronquieres Airport",
    "iata": "AUR",
    "icao": "LFLW",
    "lat": 44.897579,
    "lon": 2.416719,
    "country": "France",
    "alt": 2096
}, {
    "name": "Aurukun Airport",
    "iata": "AUU",
    "icao": "YAUR",
    "lat": -13.353889,
    "lon": 141.72084,
    "country": "Australia",
    "alt": 29
}, {
    "name": "Austin Bergstrom International Airport",
    "iata": "AUS",
    "icao": "KAUS",
    "lat": 30.194521,
    "lon": -97.6698,
    "country": "United States",
    "alt": 542
}, {
    "name": "Austin Executive Airport",
    "iata": "EDC",
    "icao": "KEDC",
    "lat": 30.389999,
    "lon": -97.559998,
    "country": "United States",
    "alt": 620
}, {
    "name": "Auxerre Branches Airport",
    "iata": "AUF",
    "icao": "LFLA",
    "lat": 47.846321,
    "lon": 3.496578,
    "country": "France",
    "alt": 523
}, {
    "name": "Avalon Catalina Airport",
    "iata": "AVX",
    "icao": "KAVX",
    "lat": 33.404999,
    "lon": -118.415833,
    "country": "United States",
    "alt": 1602
}, {
    "name": "Avarua Rarotonga International Airport",
    "iata": "RAR",
    "icao": "NCRG",
    "lat": -21.2027,
    "lon": -159.804993,
    "country": "Cook Islands",
    "alt": 19
}, {
    "name": "Aviano Air Base",
    "iata": "AVB",
    "icao": "LIPA",
    "lat": 46.031879,
    "lon": 12.59647,
    "country": "Italy",
    "alt": 410
}, {
    "name": "Avignon Caumont Airport",
    "iata": "AVN",
    "icao": "LFMV",
    "lat": 43.906582,
    "lon": 4.902028,
    "country": "France",
    "alt": 124
}, {
    "name": "Avoca Wilkes-Barre/Scranton International Airport",
    "iata": "AVP",
    "icao": "KAVP",
    "lat": 41.33847,
    "lon": -75.723297,
    "country": "United States",
    "alt": 962
}, {
    "name": "Awali Sakhir Air Base",
    "iata": "KHB",
    "icao": "OBKH",
    "lat": 26.034721,
    "lon": 50.524445,
    "country": "Bahrain",
    "alt": 49
}, {
    "name": "Awasa Airport",
    "iata": "AWA",
    "icao": "HALA",
    "lat": 7.095,
    "lon": 38.398335,
    "country": "Ethiopia",
    "alt": 5604
}, {
    "name": "Axum Airport",
    "iata": "AXU",
    "icao": "HAAX",
    "lat": 14.14675,
    "lon": 38.772831,
    "country": "Ethiopia",
    "alt": 6915
}, {
    "name": "Ayacucho Airport",
    "iata": "AYP",
    "icao": "SPHO",
    "lat": -13.1548,
    "lon": -74.204399,
    "country": "Peru",
    "alt": 8917
}, {
    "name": "Ayers Rock Airport",
    "iata": "AYQ",
    "icao": "YAYE",
    "lat": -25.1861,
    "lon": 130.975494,
    "country": "Australia",
    "alt": 1626
}, {
    "name": "Babo Airport",
    "iata": "BXB",
    "icao": "WASO",
    "lat": -2.53224,
    "lon": 133.438797,
    "country": "Indonesia",
    "alt": 10
}, {
    "name": "Bacau International Airport",
    "iata": "BCM",
    "icao": "LRBC",
    "lat": 46.521938,
    "lon": 26.910271,
    "country": "Romania",
    "alt": 607
}, {
    "name": "Bacolod City Silay International Airport",
    "iata": "BCD",
    "icao": "RPVB",
    "lat": 10.776905,
    "lon": 123.018394,
    "country": "Philippines",
    "alt": 25
}, {
    "name": "Badajoz Airport",
    "iata": "BJZ",
    "icao": "LEBZ",
    "lat": 38.891251,
    "lon": -6.82133,
    "country": "Spain",
    "alt": 609
}, {
    "name": "Badu Island Airport",
    "iata": "BDD",
    "icao": "YBAU",
    "lat": -10.15,
    "lon": 142.173401,
    "country": "Australia",
    "alt": 14
}, {
    "name": "Bafoussam Airport",
    "iata": "BFX",
    "icao": "FKKU",
    "lat": 5.536919,
    "lon": 10.35458,
    "country": "Cameroon",
    "alt": 4347
}, {
    "name": "Baghdad International Airport",
    "iata": "BGW",
    "icao": "ORBI",
    "lat": 33.262501,
    "lon": 44.234444,
    "country": "Iraq",
    "alt": 114
}, {
    "name": "Baglung Airport",
    "iata": "BGL",
    "icao": "VNBL",
    "lat": 28.212799,
    "lon": 83.666298,
    "country": "Nepal",
    "alt": 3320
}, {
    "name": "Bahawalpur Airport",
    "iata": "BHV",
    "icao": "OPBW",
    "lat": 29.348057,
    "lon": 71.717781,
    "country": "Pakistan",
    "alt": 392
}, {
    "name": "Bahia Blanca Comandante Espora Airport",
    "iata": "BHI",
    "icao": "SAZB",
    "lat": -38.724899,
    "lon": -62.1693,
    "country": "Argentina",
    "alt": 246
}, {
    "name": "Bahia Solano Jose Celestino Mutis Airport",
    "iata": "BSC",
    "icao": "SKBS",
    "lat": 6.202936,
    "lon": -77.394798,
    "country": "Colombia",
    "alt": 80
}, {
    "name": "Bahir Dar Airport",
    "iata": "BJR",
    "icao": "HABD",
    "lat": 11.60807,
    "lon": 37.32164,
    "country": "Ethiopia",
    "alt": 5976
}, {
    "name": "Bahrain International Airport",
    "iata": "BAH",
    "icao": "OBBI",
    "lat": 26.27083,
    "lon": 50.63361,
    "country": "Bahrain",
    "alt": 6
}, {
    "name": "Baia Mare Airport",
    "iata": "BAY",
    "icao": "LRBM",
    "lat": 47.658379,
    "lon": 23.47002,
    "country": "Romania",
    "alt": 605
}, {
    "name": "Baicheng Chang'an Airport",
    "iata": "DBC",
    "icao": "ZLGL",
    "lat": 45.50528,
    "lon": 123.019722,
    "country": "China",
    "alt": 463
}, {
    "name": "Baie Comeau Airport",
    "iata": "YBC",
    "icao": "CYBC",
    "lat": 49.1325,
    "lon": -68.204399,
    "country": "Canada",
    "alt": 71
}, {
    "name": "Bairnsdale Airport",
    "iata": "BSJ",
    "icao": "YBNS",
    "lat": -37.887501,
    "lon": 147.567993,
    "country": "Australia",
    "alt": 165
}, {
    "name": "Baise Bama Airport",
    "iata": "AEB",
    "icao": "ZGBS",
    "lat": 23.719469,
    "lon": 106.967773,
    "country": "China",
    "alt": 480
}, {
    "name": "Baishan Changbaishan Airport",
    "iata": "NBS",
    "icao": "ZYBS",
    "lat": 42.088055,
    "lon": 127.548889,
    "country": "China",
    "alt": 2883
}, {
    "name": "Bajawa Turelelo Soa Airport",
    "iata": "BJW",
    "icao": "WATB",
    "lat": -8.7125,
    "lon": 121.0625,
    "country": "Indonesia",
    "alt": 4326
}, {
    "name": "Bakelalan Airport",
    "iata": "BKM",
    "icao": "WBGO",
    "lat": 3.973691,
    "lon": 115.617157,
    "country": "Malaysia",
    "alt": 3039
}, {
    "name": "Baker City Municipal Airport",
    "iata": "BKE",
    "icao": "KBKE",
    "lat": 44.837299,
    "lon": -117.808998,
    "country": "United States",
    "alt": 3373
}, {
    "name": "Baker Lake Airport",
    "iata": "YBK",
    "icao": "CYBK",
    "lat": 64.298882,
    "lon": -96.077698,
    "country": "Canada",
    "alt": 59
}, {
    "name": "Bakersfield Meadows Field Airport",
    "iata": "BFL",
    "icao": "KBFL",
    "lat": 35.433861,
    "lon": -119.056999,
    "country": "United States",
    "alt": 510
}, {
    "name": "Baku Heydar Aliyev International Airport",
    "iata": "GYD",
    "icao": "UBBB",
    "lat": 40.467499,
    "lon": 50.046661,
    "country": "Azerbaijan",
    "alt": 10
}, {
    "name": "Balboa Panama Pacifico International Airport",
    "iata": "BLB",
    "icao": "MPPA",
    "lat": 8.914011,
    "lon": -79.598091,
    "country": "Panama",
    "alt": 33
}, {
    "name": "Balikpapan Sepinggan Airport",
    "iata": "BPN",
    "icao": "WALL",
    "lat": -1.26827,
    "lon": 116.894402,
    "country": "Indonesia",
    "alt": 12
}, {
    "name": "Balkhash Airport",
    "iata": "BXH",
    "icao": "UAAH",
    "lat": 46.893299,
    "lon": 75.004997,
    "country": "Kazakhstan",
    "alt": 1446
}, {
    "name": "Ballera Airport",
    "iata": "BBL",
    "icao": "YLLE",
    "lat": -27.408333,
    "lon": 141.808334,
    "country": "Australia",
    "alt": 385
}, {
    "name": "Ballina Byron Gateway Airport",
    "iata": "BNK",
    "icao": "YBNA",
    "lat": -28.833799,
    "lon": 153.5625,
    "country": "Australia",
    "alt": 7
}, {
    "name": "Balmaceda Airport",
    "iata": "BBA",
    "icao": "SCBA",
    "lat": -45.916,
    "lon": -71.6894,
    "country": "Chile",
    "alt": 1722
}, {
    "name": "Baltimore Martin State Airport",
    "iata": "MTN",
    "icao": "KMTN",
    "lat": 39.321667,
    "lon": -76.411667,
    "country": "United States",
    "alt": 22
}, {
    "name": "Baltimore Washington International Airport",
    "iata": "BWI",
    "icao": "KBWI",
    "lat": 39.175362,
    "lon": -76.668297,
    "country": "United States",
    "alt": 146
}, {
    "name": "Baltrum Airport",
    "iata": "BMR",
    "icao": "EDWZ",
    "lat": 53.724724,
    "lon": 7.373333,
    "country": "Germany",
    "alt": 7
}, {
    "name": "Bam Airport",
    "iata": "BXR",
    "icao": "OIKM",
    "lat": 29.084208,
    "lon": 58.449783,
    "country": "Iran",
    "alt": 3184
}, {
    "name": "Bamaga Northern Peninsula Airport",
    "iata": "ABM",
    "icao": "YNPE",
    "lat": -10.9508,
    "lon": 142.459396,
    "country": "Australia",
    "alt": 34
}, {
    "name": "Bamako Senou International Airport",
    "iata": "BKO",
    "icao": "GABS",
    "lat": 12.53354,
    "lon": -7.94994,
    "country": "Mali",
    "alt": 1247
}, {
    "name": "Bamberg Breitenau Airport",
    "iata": "QCB",
    "icao": "EDQA",
    "lat": 49.921146,
    "lon": 10.915216,
    "country": "Germany",
    "alt": 816
}, {
    "name": "Bamenda Airport",
    "iata": "BPC",
    "icao": "FKKV",
    "lat": 6.039239,
    "lon": 10.12263,
    "country": "Cameroon",
    "alt": 4065
}, {
    "name": "Ban Houeisay Airport",
    "iata": "HOE",
    "icao": "VLHS",
    "lat": 20.260511,
    "lon": 100.436783,
    "country": "Laos",
    "alt": 1380
}, {
    "name": "Banda Aceh International Airport",
    "iata": "BTJ",
    "icao": "WITT",
    "lat": 5.523522,
    "lon": 95.420372,
    "country": "Indonesia",
    "alt": 65
}, {
    "name": "Bandar Abbas International Airport",
    "iata": "BND",
    "icao": "OIKB",
    "lat": 27.218309,
    "lon": 56.37785,
    "country": "Iran",
    "alt": 22
}, {
    "name": "Bandar Lampung Radin Inten II Airport",
    "iata": "TKG",
    "icao": "WICT",
    "lat": -5.2425,
    "lon": 105.178886,
    "country": "Indonesia",
    "alt": 282
}, {
    "name": "Bandar Lengeh Airport",
    "iata": "BDH",
    "icao": "OIBL",
    "lat": 26.532,
    "lon": 54.824841,
    "country": "Iran",
    "alt": 67
}, {
    "name": "Bandung Husein Sastranegara International Airport",
    "iata": "BDO",
    "icao": "WICC",
    "lat": -6.90062,
    "lon": 107.576202,
    "country": "Indonesia",
    "alt": 2436
}, {
    "name": "Bangkok Don Mueang International Airport",
    "iata": "DMK",
    "icao": "VTBD",
    "lat": 13.9125,
    "lon": 100.606697,
    "country": "Thailand",
    "alt": 9
}, {
    "name": "Bangkok Suvarnabhumi Airport",
    "iata": "BKK",
    "icao": "VTBS",
    "lat": 13.6811,
    "lon": 100.7472,
    "country": "Thailand",
    "alt": 5
}, {
    "name": "Bangor International Airport",
    "iata": "BGR",
    "icao": "KBGR",
    "lat": 44.807442,
    "lon": -68.828102,
    "country": "United States",
    "alt": 192
}, {
    "name": "Bangui Airport",
    "iata": "BGF",
    "icao": "FEFF",
    "lat": 4.398475,
    "lon": 18.51878,
    "country": "Central African Republic",
    "alt": 1208
}, {
    "name": "Banja Luka International Airport",
    "iata": "BNX",
    "icao": "LQBK",
    "lat": 44.941441,
    "lon": 17.297501,
    "country": "Bosnia And Herzegovina",
    "alt": 400
}, {
    "name": "Banjarmasin Syamsudin Noor Airport",
    "iata": "BDJ",
    "icao": "WAOO",
    "lat": -3.44235,
    "lon": 114.762497,
    "country": "Indonesia",
    "alt": 66
}, {
    "name": "Banjul International Airport",
    "iata": "BJL",
    "icao": "GBYD",
    "lat": 13.33796,
    "lon": -16.652201,
    "country": "Gambia",
    "alt": 95
}, {
    "name": "Bankstown Airport",
    "iata": "BWU",
    "icao": "YSBK",
    "lat": -33.9244,
    "lon": 150.988297,
    "country": "Australia",
    "alt": 29
}, {
    "name": "Baoshan Yunduan Airport",
    "iata": "BSD",
    "icao": "ZPBS",
    "lat": 25.055182,
    "lon": 99.16143,
    "country": "China",
    "alt": 5514
}, {
    "name": "Baotou Erliban Airport",
    "iata": "BAV",
    "icao": "ZBOW",
    "lat": 40.55999,
    "lon": 109.996902,
    "country": "China",
    "alt": 123
}, {
    "name": "Barahona Maria Montez International Airport",
    "iata": "BRX",
    "icao": "MDBH",
    "lat": 18.251459,
    "lon": -71.120399,
    "country": "Dominican Republic",
    "alt": 10
}, {
    "name": "Barcaldine Airport",
    "iata": "BCI",
    "icao": "YBAR",
    "lat": -23.559168,
    "lon": 145.301941,
    "country": "Australia",
    "alt": 878
}, {
    "name": "Barcelona El Prat Airport",
    "iata": "BCN",
    "icao": "LEBL",
    "lat": 41.29707,
    "lon": 2.078463,
    "country": "Spain",
    "alt": 12
}, {
    "name": "Barcelona Jose Antonio Anzoategui International Airport",
    "iata": "BLA",
    "icao": "SVBC",
    "lat": 10.10713,
    "lon": -64.689102,
    "country": "Venezuela",
    "alt": 26
}, {
    "name": "Barcelos Airport",
    "iata": "BAZ",
    "icao": "SWBC",
    "lat": -0.98,
    "lon": -62.91,
    "country": "Brazil",
    "alt": 112
}, {
    "name": "Bardufoss Airport",
    "iata": "BDU",
    "icao": "ENDU",
    "lat": 69.055748,
    "lon": 18.54035,
    "country": "Norway",
    "alt": 252
}, {
    "name": "Bareilly Airport",
    "iata": "BEK",
    "icao": "VIBY",
    "lat": 28.422232,
    "lon": 79.450691,
    "country": "India",
    "alt": 574
}, {
    "name": "Bari Karol Wojtyla Airport",
    "iata": "BRI",
    "icao": "LIBD",
    "lat": 41.138851,
    "lon": 16.76059,
    "country": "Italy",
    "alt": 177
}, {
    "name": "Barimunya Airport",
    "iata": "BYP",
    "icao": "YBRY",
    "lat": -22.673889,
    "lon": 119.166115,
    "country": "Australia",
    "alt": 2091
}, {
    "name": "Barinas Airport",
    "iata": "BNS",
    "icao": "SVBI",
    "lat": 8.619575,
    "lon": -70.220802,
    "country": "Venezuela",
    "alt": 666
}, {
    "name": "Bario Airport",
    "iata": "BBN",
    "icao": "WBGZ",
    "lat": 3.736944,
    "lon": 115.469398,
    "country": "Malaysia",
    "alt": 3450
}, {
    "name": "Barisal Airport",
    "iata": "BZL",
    "icao": "VGBR",
    "lat": 22.798943,
    "lon": 90.301445,
    "country": "Bangladesh",
    "alt": 20
}, {
    "name": "Barnaul Airport",
    "iata": "BAX",
    "icao": "UNBB",
    "lat": 53.36377,
    "lon": 83.538528,
    "country": "Russia",
    "alt": 838
}, {
    "name": "Barquisimeto Jacinto Lara International Airport",
    "iata": "BRM",
    "icao": "SVBM",
    "lat": 10.04274,
    "lon": -69.358597,
    "country": "Venezuela",
    "alt": 2042
}, {
    "name": "Barra Airport",
    "iata": "BRR",
    "icao": "EGPR",
    "lat": 57.016998,
    "lon": -7.433,
    "country": "United Kingdom",
    "alt": 5
}, {
    "name": "Barra do Garcas Airport",
    "iata": "BPG",
    "icao": "SBBW",
    "lat": -15.8613,
    "lon": -52.388802,
    "country": "Brazil",
    "alt": 1147
}, {
    "name": "Barrancabermeja Yariguies Airport",
    "iata": "EJA",
    "icao": "SKEJ",
    "lat": 7.024331,
    "lon": -73.806801,
    "country": "Colombia",
    "alt": 412
}, {
    "name": "Barranquilla Ernesto Cortissoz International Airport",
    "iata": "BAQ",
    "icao": "SKBQ",
    "lat": 10.88946,
    "lon": -74.780602,
    "country": "Colombia",
    "alt": 98
}, {
    "name": "Barreiras Airport",
    "iata": "BRA",
    "icao": "SNBR",
    "lat": -12.073056,
    "lon": -45.008331,
    "country": "Brazil",
    "alt": 2444
}, {
    "name": "Barrie Lake Simcoe Regional Airport",
    "iata": "YLK",
    "icao": "CYLS",
    "lat": 44.48605,
    "lon": -79.555603,
    "country": "Canada",
    "alt": 947
}, {
    "name": "Barrow Airport",
    "iata": "BRW",
    "icao": "PABR",
    "lat": 71.285439,
    "lon": -156.766006,
    "country": "United States",
    "alt": 52
}, {
    "name": "Barrow Island Airport",
    "iata": "BWB",
    "icao": "YBWX",
    "lat": -20.864401,
    "lon": 115.405998,
    "country": "Australia",
    "alt": 26
}, {
    "name": "Barrow-in-Furness Walney Island Airport",
    "iata": "BWF",
    "icao": "EGNL",
    "lat": 54.131161,
    "lon": -3.26366,
    "country": "United Kingdom",
    "alt": 173
}, {
    "name": "Barter Island LRRS Airport",
    "iata": "BTI",
    "icao": "PABA",
    "lat": 70.131943,
    "lon": -143.623886,
    "country": "United States",
    "alt": 2
}, {
    "name": "Bartlesville Municipal Airport",
    "iata": "BVO",
    "icao": "KBVO",
    "lat": 36.762501,
    "lon": -96.0112,
    "country": "United States",
    "alt": 711
}, {
    "name": "Bartow Municipal Airport",
    "iata": "BOW",
    "icao": "KBOW",
    "lat": 27.943333,
    "lon": -81.783333,
    "country": "United States",
    "alt": 125
}, {
    "name": "Basco Airport",
    "iata": "BSO",
    "icao": "RPUO",
    "lat": 20.453056,
    "lon": 121.977776,
    "country": "Philippines",
    "alt": 291
}, {
    "name": "Basel Mulhouse-Freiburg EuroAirport",
    "iata": "BSL",
    "icao": "LFSB",
    "lat": 47.5989,
    "lon": 7.5283,
    "country": "France",
    "alt": 885
}, {
    "name": "Basra International Airport",
    "iata": "BSR",
    "icao": "ORMM",
    "lat": 30.549061,
    "lon": 47.66214,
    "country": "Iraq",
    "alt": 11
}, {
    "name": "Basseterre Robert L. Bradshaw International Airport",
    "iata": "SKB",
    "icao": "TKPK",
    "lat": 17.31119,
    "lon": -62.718601,
    "country": "Saint Kitts And Nevis",
    "alt": 170
}, {
    "name": "Bastia Poretta Airport",
    "iata": "BIA",
    "icao": "LFKB",
    "lat": 42.549999,
    "lon": 9.484722,
    "country": "France",
    "alt": 26
}, {
    "name": "Bata Airport",
    "iata": "BSG",
    "icao": "FGBT",
    "lat": 1.905469,
    "lon": 9.805681,
    "country": "Equatorial Guinea",
    "alt": 13
}, {
    "name": "Batagay Airport",
    "iata": "BQJ",
    "icao": "UEBB",
    "lat": 67.648888,
    "lon": 134.695007,
    "country": "Russia",
    "alt": 738
}, {
    "name": "Batam Hang Nadim Airport",
    "iata": "BTH",
    "icao": "WIDD",
    "lat": 1.121028,
    "lon": 104.118698,
    "country": "Indonesia",
    "alt": 126
}, {
    "name": "Batesville Regional Airport",
    "iata": "BVX",
    "icao": "KBVX",
    "lat": 35.7262,
    "lon": -91.647301,
    "country": "United States",
    "alt": 465
}, {
    "name": "Bathinda Airport",
    "iata": "BUP",
    "icao": "VIBT",
    "lat": 30.2701,
    "lon": 74.755798,
    "country": "India",
    "alt": 662
}, {
    "name": "Bathurst Airport",
    "iata": "ZBF",
    "icao": "CZBF",
    "lat": 47.629719,
    "lon": -65.7388,
    "country": "Canada",
    "alt": 193
}, {
    "name": "Bathurst Airport",
    "iata": "BHS",
    "icao": "YBTH",
    "lat": -33.400002,
    "lon": 149.649994,
    "country": "Australia",
    "alt": 2435
}, {
    "name": "Batman Airport",
    "iata": "BAL",
    "icao": "LTCJ",
    "lat": 37.928959,
    "lon": 41.116581,
    "country": "Turkey",
    "alt": 1822
}, {
    "name": "Batna International Airport",
    "iata": "BLJ",
    "icao": "DABT",
    "lat": 35.759167,
    "lon": 6.3225,
    "country": "Algeria",
    "alt": 2697
}, {
    "name": "Baton Rouge Metropolitan Airport",
    "iata": "BTR",
    "icao": "KBTR",
    "lat": 30.5329,
    "lon": -91.149803,
    "country": "United States",
    "alt": 70
}, {
    "name": "Batsfjord Airport",
    "iata": "BJF",
    "icao": "ENBS",
    "lat": 70.600273,
    "lon": 29.692499,
    "country": "Norway",
    "alt": 490
}, {
    "name": "Battle Creek Kalamazoo International Airport",
    "iata": "BTL",
    "icao": "KBTL",
    "lat": 42.307301,
    "lon": -85.251503,
    "country": "United States",
    "alt": 952
}, {
    "name": "Battle Mountain Airport",
    "iata": "BAM",
    "icao": "KBAM",
    "lat": 40.633331,
    "lon": -116.933334,
    "country": "United States",
    "alt": 4532
}, {
    "name": "Batu Licin Airport",
    "iata": "BTW",
    "icao": "WAOC",
    "lat": -3.41241,
    "lon": 115.995003,
    "country": "Indonesia",
    "alt": 3
}, {
    "name": "Batumi International Airport",
    "iata": "BUS",
    "icao": "UGSB",
    "lat": 41.610271,
    "lon": 41.599689,
    "country": "Georgia",
    "alt": 105
}, {
    "name": "Bau-Bau Betoambari Airport",
    "iata": "BUW",
    "icao": "WAAB",
    "lat": -5.48687,
    "lon": 122.569,
    "country": "Indonesia",
    "alt": 164
}, {
    "name": "Bauru Arealva Airport",
    "iata": "JTC",
    "icao": "SBAE",
    "lat": -22.157778,
    "lon": -49.068333,
    "country": "Brazil",
    "alt": 1949
}, {
    "name": "Bayannur Tianjitai Airport",
    "iata": "RLK",
    "icao": "ZBYZ",
    "lat": 40.926388,
    "lon": 107.738892,
    "country": "China",
    "alt": 3400
}, {
    "name": "Bayreuth Bindlacher Berg Airport",
    "iata": "BYU",
    "icao": "EDQD",
    "lat": 49.984421,
    "lon": 11.63856,
    "country": "Germany",
    "alt": 1601
}, {
    "name": "Bearskin Lake Airport",
    "iata": "XBE",
    "icao": "CNE3",
    "lat": 53.950001,
    "lon": -90.98333,
    "country": "Canada",
    "alt": 807
}, {
    "name": "Beatrice Municipal Airport",
    "iata": "BIE",
    "icao": "KBIE",
    "lat": 40.299999,
    "lon": -96.75,
    "country": "United States",
    "alt": 1324
}, {
    "name": "Beaufort County Airport",
    "iata": "BFT",
    "icao": "KARW",
    "lat": 32.410831,
    "lon": -80.635002,
    "country": "United States",
    "alt": 7
}, {
    "name": "Beaumont Jack Brooks Regional Airport",
    "iata": "BPT",
    "icao": "KBPT",
    "lat": 29.95083,
    "lon": -94.020599,
    "country": "United States",
    "alt": 15
}, {
    "name": "Beaumont Municipal Airport",
    "iata": "BMT",
    "icao": "KBMT",
    "lat": 30.0707,
    "lon": -94.215797,
    "country": "United States",
    "alt": 32
}, {
    "name": "Beaver County Airport",
    "iata": "BFP",
    "icao": "KBVI",
    "lat": 40.772499,
    "lon": -80.391403,
    "country": "United States",
    "alt": 1253
}, {
    "name": "Bechar Boudghene Ben Ali Lotfi Airport",
    "iata": "CBH",
    "icao": "DAOC",
    "lat": 31.645412,
    "lon": -2.279816,
    "country": "Algeria",
    "alt": 2660
}, {
    "name": "Beckley Raleigh County Memorial Airport",
    "iata": "BKW",
    "icao": "KBKW",
    "lat": 37.779999,
    "lon": -81.120003,
    "country": "United States",
    "alt": 2504
}, {
    "name": "Bedford Hanscom Field",
    "iata": "BED",
    "icao": "KBED",
    "lat": 42.469952,
    "lon": -71.289001,
    "country": "United States",
    "alt": 132
}, {
    "name": "Bedourie Airport",
    "iata": "BEU",
    "icao": "YBIE",
    "lat": -24.345043,
    "lon": 139.459488,
    "country": "Australia",
    "alt": 305
}, {
    "name": "Beef Island Terrance B. Lettsome Airport",
    "iata": "EIS",
    "icao": "TUPJ",
    "lat": 18.44483,
    "lon": -64.5429,
    "country": "Virgin Islands, British",
    "alt": 16
}, {
    "name": "Beida Al Abraq International Airport",
    "iata": "LAQ",
    "icao": "HLLQ",
    "lat": 32.788612,
    "lon": 21.964167,
    "country": "Libya",
    "alt": 2157
}, {
    "name": "Beihai Fucheng Airport",
    "iata": "BHY",
    "icao": "ZGBH",
    "lat": 21.53944,
    "lon": 109.2938,
    "country": "China",
    "alt": 83
}, {
    "name": "Beijing Capital International Airport",
    "iata": "PEK",
    "icao": "ZBAA",
    "lat": 40.084152,
    "lon": 116.592735,
    "country": "China",
    "alt": 116
}, {
    "name": "Beijing Daxing International Airport",
    "iata": "PKX",
    "icao": "ZBAD",
    "lat": 39.509167,
    "lon": 116.410553,
    "country": "China",
    "alt": 98
}, {
    "name": "Beijing Nanyuan Airport",
    "iata": "NAY",
    "icao": "ZBNY",
    "lat": 39.782501,
    "lon": 116.387779,
    "country": "China",
    "alt": "-1"
}, {
    "name": "Beira Airport",
    "iata": "BEW",
    "icao": "FQBR",
    "lat": -19.7964,
    "lon": 34.907551,
    "country": "Mozambique",
    "alt": 33
}, {
    "name": "Beirut Rafic Hariri International Airport",
    "iata": "BEY",
    "icao": "OLBA",
    "lat": 33.82093,
    "lon": 35.48838,
    "country": "Lebanon",
    "alt": 87
}, {
    "name": "Beja International Airport",
    "iata": "BYJ",
    "icao": "LPBJ",
    "lat": 38.078888,
    "lon": -7.9325,
    "country": "Portugal",
    "alt": 636
}, {
    "name": "Bejaia Soummam Airport",
    "iata": "BJA",
    "icao": "DAAE",
    "lat": 36.71199,
    "lon": 5.069922,
    "country": "Algeria",
    "alt": 20
}, {
    "name": "Belaya Gora Airport",
    "iata": "BGN",
    "icao": "UESG",
    "lat": 68.556946,
    "lon": 146.234726,
    "country": "Russia",
    "alt": 25
}, {
    "name": "Belem Val de Cans International Airport",
    "iata": "BEL",
    "icao": "SBBE",
    "lat": -1.37925,
    "lon": -48.4762,
    "country": "Brazil",
    "alt": 54
}, {
    "name": "Belfast City George Best  Airport",
    "iata": "BHD",
    "icao": "EGAC",
    "lat": 54.61805,
    "lon": -5.8725,
    "country": "United Kingdom",
    "alt": 15
}, {
    "name": "Belfast International Airport",
    "iata": "BFS",
    "icao": "EGAA",
    "lat": 54.657501,
    "lon": -6.21583,
    "country": "United Kingdom",
    "alt": 268
}, {
    "name": "Belgaum Airport",
    "iata": "IXG",
    "icao": "VOBM",
    "lat": 15.85928,
    "lon": 74.618294,
    "country": "India",
    "alt": 2487
}, {
    "name": "Belgorod International Airport",
    "iata": "EGO",
    "icao": "UUOB",
    "lat": 50.639999,
    "lon": 36.59,
    "country": "Russia",
    "alt": 734
}, {
    "name": "Belgrade Nikola Tesla Airport",
    "iata": "BEG",
    "icao": "LYBE",
    "lat": 44.818439,
    "lon": 20.30913,
    "country": "Serbia",
    "alt": 335
}, {
    "name": "Belize City Philip S. W. Goldson International Airport",
    "iata": "BZE",
    "icao": "MZBZ",
    "lat": 17.539141,
    "lon": -88.308197,
    "country": "Belize",
    "alt": 15
}, {
    "name": "Belize City Sir Barry Bowen Municipal Airport",
    "iata": "TZA",
    "icao": "MZBE",
    "lat": 17.516512,
    "lon": -88.194695,
    "country": "Belize",
    "alt": 8
}, {
    "name": "Bella Coola Airport",
    "iata": "QBC",
    "icao": "CYBD",
    "lat": 52.387501,
    "lon": -126.595833,
    "country": "Canada",
    "alt": 117
}, {
    "name": "Belle Ile En Mer Airport",
    "iata": "BIC",
    "icao": "LFEA",
    "lat": 47.325184,
    "lon": -3.201334,
    "country": "France",
    "alt": 172
}, {
    "name": "Belleville MidAmerica St. Louis Airport",
    "iata": "BLV",
    "icao": "KBLV",
    "lat": 38.54517,
    "lon": -89.835098,
    "country": "United States",
    "alt": 458
}, {
    "name": "Bellingham International Airport",
    "iata": "BLI",
    "icao": "KBLI",
    "lat": 48.79269,
    "lon": -122.537003,
    "country": "United States",
    "alt": 170
}, {
    "name": "Belo Horizonte Pampulha Airport",
    "iata": "PLU",
    "icao": "SBBH",
    "lat": -19.851101,
    "lon": -43.9506,
    "country": "Brazil",
    "alt": 2589
}, {
    "name": "Belo Horizonte Tancredo Neves International Airport",
    "iata": "CNF",
    "icao": "SBCF",
    "lat": -19.633699,
    "lon": -43.9688,
    "country": "Brazil",
    "alt": 2715
}, {
    "name": "Beloyarsk Airport",
    "iata": "EYK",
    "icao": "USHQ",
    "lat": 63.683056,
    "lon": 66.68306,
    "country": "Russia",
    "alt": 82
}, {
    "name": "Bembridge Airport",
    "iata": "BBP",
    "icao": "EGHJ",
    "lat": 50.678055,
    "lon": -1.109444,
    "country": "United Kingdom",
    "alt": 53
}, {
    "name": "Bemidji Regional Airport",
    "iata": "BJI",
    "icao": "KBJI",
    "lat": 47.509998,
    "lon": -94.93,
    "country": "United States",
    "alt": 1391
}, {
    "name": "Benalla Airport",
    "iata": "BLN",
    "icao": "YBLA",
    "lat": -36.551899,
    "lon": 146.007004,
    "country": "Australia",
    "alt": 569
}, {
    "name": "Benbecula Airport",
    "iata": "BEB",
    "icao": "EGPL",
    "lat": 57.48111,
    "lon": -7.36277,
    "country": "United Kingdom",
    "alt": 19
}, {
    "name": "Bendigo Airport",
    "iata": "BXG",
    "icao": "YBDG",
    "lat": -36.739399,
    "lon": 144.330002,
    "country": "Australia",
    "alt": 705
}, {
    "name": "Bengaluru Kempegowda International Airport",
    "iata": "BLR",
    "icao": "VOBL",
    "lat": 13.198889,
    "lon": 77.705559,
    "country": "India",
    "alt": 3002
}, {
    "name": "Benghazi Benina International Airport",
    "iata": "BEN",
    "icao": "HLLB",
    "lat": 32.096779,
    "lon": 20.26947,
    "country": "Libya",
    "alt": 433
}, {
    "name": "Bengkulu Fatmawati Soekarno Airport",
    "iata": "BKS",
    "icao": "WIPL",
    "lat": -3.8637,
    "lon": 102.338997,
    "country": "Indonesia",
    "alt": 50
}, {
    "name": "Beni Mellal Airport",
    "iata": "BEM",
    "icao": "GMMD",
    "lat": 32.400002,
    "lon": -6.316667,
    "country": "Morocco",
    "alt": 1700
}, {
    "name": "Benin Airport",
    "iata": "BNI",
    "icao": "DNBE",
    "lat": 6.316981,
    "lon": 5.599503,
    "country": "Nigeria",
    "alt": 258
}, {
    "name": "Benton Harbor Southwest Michigan Regional Airport",
    "iata": "BEH",
    "icao": "KBEH",
    "lat": 42.128601,
    "lon": -86.428497,
    "country": "United States",
    "alt": 643
}, {
    "name": "Bentonville Northwest Arkansas National Airport",
    "iata": "XNA",
    "icao": "KXNA",
    "lat": 36.28186,
    "lon": -94.306801,
    "country": "United States",
    "alt": 1288
}, {
    "name": "Bequia J.F. Mitchell Airport",
    "iata": "BQU",
    "icao": "TVSB",
    "lat": 12.9884,
    "lon": -61.262001,
    "country": "Saint Vincent And The Grenadines",
    "alt": 15
}, {
    "name": "Berbera Airport",
    "iata": "BBO",
    "icao": "HCMI",
    "lat": 10.38916,
    "lon": 44.941101,
    "country": "Somalia",
    "alt": 30
}, {
    "name": "Berens River Airport",
    "iata": "YBV",
    "icao": "CYBV",
    "lat": 52.358696,
    "lon": -97.021408,
    "country": "Canada",
    "alt": 716
}, {
    "name": "Bergen Flesland Airport",
    "iata": "BGO",
    "icao": "ENBR",
    "lat": 60.293381,
    "lon": 5.218142,
    "country": "Norway",
    "alt": 170
}, {
    "name": "Bergen op Zoom Woensdrecht Air Base Airport",
    "iata": "WOE",
    "icao": "EHWO",
    "lat": 51.4491,
    "lon": 4.34203,
    "country": "Netherlands",
    "alt": 63
}, {
    "name": "Bergerac Dordogne Perigord Airport",
    "iata": "EGC",
    "icao": "LFBE",
    "lat": 44.824429,
    "lon": 0.520525,
    "country": "France",
    "alt": 171
}, {
    "name": "Berlevag Airport",
    "iata": "BVG",
    "icao": "ENBV",
    "lat": 70.871384,
    "lon": 29.034161,
    "country": "Norway",
    "alt": 42
}, {
    "name": "Berlin Brandenburg Airport",
    "iata": "BER",
    "icao": "EDDB",
    "lat": 52.362877,
    "lon": 13.503722,
    "country": "Germany",
    "alt": 157
}, {
    "name": "Bermuda L.F. Wade International Airport",
    "iata": "BDA",
    "icao": "TXKF",
    "lat": 32.36404,
    "lon": -64.678703,
    "country": "Bermuda",
    "alt": 18
}, {
    "name": "Bern Airport",
    "iata": "BRN",
    "icao": "LSZB",
    "lat": 46.914101,
    "lon": 7.497153,
    "country": "Switzerland",
    "alt": 1674
}, {
    "name": "Bertoua Airport",
    "iata": "BTA",
    "icao": "FKKO",
    "lat": 4.548611,
    "lon": 13.72611,
    "country": "Cameroon",
    "alt": 2133
}, {
    "name": "Beryozovo Airport",
    "iata": "EZV",
    "icao": "USHB",
    "lat": 63.924583,
    "lon": 65.044853,
    "country": "Russia",
    "alt": 75
}, {
    "name": "Besancon La Veze Airport",
    "iata": "QYB",
    "icao": "LFQM",
    "lat": 47.2066,
    "lon": 6.08368,
    "country": "France",
    "alt": 1271
}, {
    "name": "Beslan Airport",
    "iata": "OGZ",
    "icao": "URMO",
    "lat": 43.205002,
    "lon": 44.606667,
    "country": "Russia",
    "alt": 1673
}, {
    "name": "Bethel Airport",
    "iata": "BET",
    "icao": "PABE",
    "lat": 60.77977,
    "lon": -161.837997,
    "country": "United States",
    "alt": 128
}, {
    "name": "Bettles Airport",
    "iata": "BTT",
    "icao": "PABT",
    "lat": 66.91394,
    "lon": -151.529007,
    "country": "United States",
    "alt": 647
}, {
    "name": "Beverly Regional Airport",
    "iata": "BVY",
    "icao": "KBVY",
    "lat": 42.584202,
    "lon": -70.916496,
    "country": "United States",
    "alt": 107
}, {
    "name": "Beziers Cap d'Agde Airport",
    "iata": "BZR",
    "icao": "LFMU",
    "lat": 43.323421,
    "lon": 3.353397,
    "country": "France",
    "alt": 56
}, {
    "name": "Bhadrapur Airport",
    "iata": "BDP",
    "icao": "VNCG",
    "lat": 26.570801,
    "lon": 88.079597,
    "country": "Nepal",
    "alt": 300
}, {
    "name": "Bhamo Banmaw Airport",
    "iata": "BMO",
    "icao": "VYBM",
    "lat": 24.268354,
    "lon": 97.249054,
    "country": "Myanmar (Burma)",
    "alt": 377
}, {
    "name": "Bharatpur Airport",
    "iata": "BHR",
    "icao": "VNBP",
    "lat": 27.678049,
    "lon": 84.429443,
    "country": "Nepal",
    "alt": 600
}, {
    "name": "Bhavnagar Airport",
    "iata": "BHU",
    "icao": "VABV",
    "lat": 21.752199,
    "lon": 72.185181,
    "country": "India",
    "alt": 44
}, {
    "name": "Bhopal Raja Bhoj Airport",
    "iata": "BHO",
    "icao": "VABP",
    "lat": 23.28746,
    "lon": 77.337372,
    "country": "India",
    "alt": 1719
}, {
    "name": "Bhubaneswar Biju Patnaik International Airport",
    "iata": "BBI",
    "icao": "VEBS",
    "lat": 20.24436,
    "lon": 85.81778,
    "country": "India",
    "alt": 138
}, {
    "name": "Bhuj Airport",
    "iata": "BHJ",
    "icao": "VABJ",
    "lat": 23.287821,
    "lon": 69.670143,
    "country": "India",
    "alt": 268
}, {
    "name": "Biak Frans Kaisiepo Airport",
    "iata": "BIK",
    "icao": "WABB",
    "lat": -1.19001,
    "lon": 136.107895,
    "country": "Indonesia",
    "alt": 46
}, {
    "name": "Biala Podlaska Airport",
    "iata": "BXP",
    "icao": "EPBP",
    "lat": 52.003056,
    "lon": 23.143612,
    "country": "Poland",
    "alt": 495
}, {
    "name": "Biarritz Pays Basque Airport",
    "iata": "BIQ",
    "icao": "LFBZ",
    "lat": 43.46833,
    "lon": -1.53111,
    "country": "France",
    "alt": 245
}, {
    "name": "Bidar Airport",
    "iata": "IXX",
    "icao": "VOBR",
    "lat": 17.908081,
    "lon": 77.487144,
    "country": "India",
    "alt": 2186
}, {
    "name": "Bielefeld Airport",
    "iata": "BFE",
    "icao": "EDLI",
    "lat": 51.964722,
    "lon": 8.544444,
    "country": "Germany",
    "alt": 433
}, {
    "name": "Big Trout Lake Airport",
    "iata": "YTL",
    "icao": "CYTL",
    "lat": 53.817501,
    "lon": -89.896896,
    "country": "Canada",
    "alt": 777
}, {
    "name": "Bijie Feixiong Airport",
    "iata": "BFJ",
    "icao": "ZUBJ",
    "lat": 27.266666,
    "lon": 105.479164,
    "country": "China",
    "alt": 4751
}, {
    "name": "Bikaner Nal Airport",
    "iata": "BKB",
    "icao": "VIBK",
    "lat": 28.070601,
    "lon": 73.207199,
    "country": "India",
    "alt": 750
}, {
    "name": "Bilaspur Airport",
    "iata": "PAB",
    "icao": "VEBU",
    "lat": 21.988333,
    "lon": 82.111115,
    "country": "India",
    "alt": 899
}, {
    "name": "Bilbao Airport",
    "iata": "BIO",
    "icao": "LEBB",
    "lat": 43.30109,
    "lon": -2.9106,
    "country": "Spain",
    "alt": 138
}, {
    "name": "Bildudalur Airport",
    "iata": "BIU",
    "icao": "BIBD",
    "lat": 65.641388,
    "lon": -23.54611,
    "country": "Iceland",
    "alt": 18
}, {
    "name": "Billings Logan International Airport",
    "iata": "BIL",
    "icao": "KBIL",
    "lat": 45.807659,
    "lon": -108.542,
    "country": "United States",
    "alt": 3652
}, {
    "name": "Billund Airport",
    "iata": "BLL",
    "icao": "EKBI",
    "lat": 55.740318,
    "lon": 9.151778,
    "country": "Denmark",
    "alt": 247
}, {
    "name": "Bima Sultan Muhammad Salahudin Airport",
    "iata": "BMU",
    "icao": "WADB",
    "lat": -8.53964,
    "lon": 118.687302,
    "country": "Indonesia",
    "alt": 3
}, {
    "name": "Bingol Airport",
    "iata": "BGG",
    "icao": "LTCU",
    "lat": 38.861111,
    "lon": 40.592499,
    "country": "Turkey",
    "alt": 3490
}, {
    "name": "Bintulu Airport",
    "iata": "BTU",
    "icao": "WBGB",
    "lat": 3.12385,
    "lon": 113.020401,
    "country": "Malaysia",
    "alt": 74
}, {
    "name": "Biratnagar Airport",
    "iata": "BIR",
    "icao": "VNVT",
    "lat": 26.484159,
    "lon": 87.264442,
    "country": "Nepal",
    "alt": 236
}, {
    "name": "Birdsville Airport",
    "iata": "BVI",
    "icao": "YBDV",
    "lat": -25.898333,
    "lon": 139.343338,
    "country": "Australia",
    "alt": 157
}, {
    "name": "Birjand International Airport",
    "iata": "XBJ",
    "icao": "OIMB",
    "lat": 32.898048,
    "lon": 59.266109,
    "country": "Iran",
    "alt": 4952
}, {
    "name": "Birmingham Airport",
    "iata": "BHX",
    "icao": "EGBB",
    "lat": 52.45385,
    "lon": -1.74802,
    "country": "United Kingdom",
    "alt": 327
}, {
    "name": "Birmingham Shuttlesworth International Airport",
    "iata": "BHM",
    "icao": "KBHM",
    "lat": 33.563881,
    "lon": -86.752296,
    "country": "United States",
    "alt": 650
}, {
    "name": "Bisha Domestic Airport",
    "iata": "BHH",
    "icao": "OEBH",
    "lat": 19.98435,
    "lon": 42.62088,
    "country": "Saudi Arabia",
    "alt": 3887
}, {
    "name": "Bishkek Manas International Airport",
    "iata": "FRU",
    "icao": "UCFM",
    "lat": 43.061298,
    "lon": 74.477547,
    "country": "Kyrgyzstan",
    "alt": 2058
}, {
    "name": "Bishop Eastern Sierra Regional Airport",
    "iata": "BIH",
    "icao": "KBIH",
    "lat": 37.3731,
    "lon": -118.363998,
    "country": "United States",
    "alt": 4124
}, {
    "name": "Biskra Airport",
    "iata": "BSK",
    "icao": "DAUB",
    "lat": 34.793282,
    "lon": 5.738231,
    "country": "Algeria",
    "alt": 289
}, {
    "name": "Bismarck Municipal Airport",
    "iata": "BIS",
    "icao": "KBIS",
    "lat": 46.774479,
    "lon": -100.758209,
    "country": "United States",
    "alt": 1661
}, {
    "name": "Bissau Osvaldo Vieira International Airport",
    "iata": "OXB",
    "icao": "GGOV",
    "lat": 11.8947,
    "lon": -15.6536,
    "country": "Guinea-Bissau",
    "alt": 129
}, {
    "name": "Bitburg Airport",
    "iata": "BBJ",
    "icao": "EDRB",
    "lat": 49.945332,
    "lon": 6.565,
    "country": "Germany",
    "alt": 1223
}, {
    "name": "Black Tickle Airport",
    "iata": "YBI",
    "icao": "CCE4",
    "lat": 53.469398,
    "lon": -55.785,
    "country": "Canada",
    "alt": 57
}, {
    "name": "Blackall Airport",
    "iata": "BKQ",
    "icao": "YBCK",
    "lat": -24.4277,
    "lon": 145.428604,
    "country": "Australia",
    "alt": 928
}, {
    "name": "Blackbushe Airport",
    "iata": "BBS",
    "icao": "EGLK",
    "lat": 51.323879,
    "lon": -0.8475,
    "country": "United Kingdom",
    "alt": 325
}, {
    "name": "Blackpool International Airport",
    "iata": "BLK",
    "icao": "EGNH",
    "lat": 53.772106,
    "lon": -3.038085,
    "country": "United Kingdom",
    "alt": 34
}, {
    "name": "Blacksburg Virginia Tech Montgomery Executive Airport",
    "iata": "BCB",
    "icao": "KBCB",
    "lat": 37.2076,
    "lon": -80.407799,
    "country": "United States",
    "alt": 2132
}, {
    "name": "Blagoveshchensk Ignatyevo Airport",
    "iata": "BQS",
    "icao": "UHBB",
    "lat": 50.425388,
    "lon": 127.412399,
    "country": "Russia",
    "alt": 638
}, {
    "name": "Blantyre Chileka International Airport",
    "iata": "BLZ",
    "icao": "FWCL",
    "lat": -15.679,
    "lon": 34.97401,
    "country": "Malawi",
    "alt": 2555
}, {
    "name": "Blenheim Woodbourne Airport",
    "iata": "BHE",
    "icao": "NZWB",
    "lat": -41.518299,
    "lon": 173.870193,
    "country": "New Zealand",
    "alt": 109
}, {
    "name": "Blimbingsari Airport",
    "iata": "BWX",
    "icao": "WADY",
    "lat": -8.31,
    "lon": 114.340279,
    "country": "Indonesia",
    "alt": 110
}, {
    "name": "Block Island Airport",
    "iata": "BID",
    "icao": "KBID",
    "lat": 41.169434,
    "lon": -71.579613,
    "country": "United States",
    "alt": 109
}, {
    "name": "Bloemfontein Airport",
    "iata": "BFN",
    "icao": "FABL",
    "lat": -29.092699,
    "lon": 26.302441,
    "country": "South Africa",
    "alt": 4458
}, {
    "name": "Blonduos Airport",
    "iata": "BLO",
    "icao": "BIBL",
    "lat": 65.644997,
    "lon": -20.2875,
    "country": "Iceland",
    "alt": 131
}, {
    "name": "Bloomington Central Illinois Regional Airport",
    "iata": "BMI",
    "icao": "KBMI",
    "lat": 40.477112,
    "lon": -88.915901,
    "country": "United States",
    "alt": 871
}, {
    "name": "Bloomington Monroe County Airport",
    "iata": "BMG",
    "icao": "KBMG",
    "lat": 39.139999,
    "lon": -86.610001,
    "country": "United States",
    "alt": 846
}, {
    "name": "Blountville Tri-Cities Regional Airport",
    "iata": "TRI",
    "icao": "KTRI",
    "lat": 36.47522,
    "lon": -82.407402,
    "country": "United States",
    "alt": 1519
}, {
    "name": "Bluefields Airport",
    "iata": "BEF",
    "icao": "MNBL",
    "lat": 11.99096,
    "lon": -83.774002,
    "country": "Nicaragua",
    "alt": 41
}, {
    "name": "Blythe Airport",
    "iata": "BLH",
    "icao": "KBLH",
    "lat": 33.610001,
    "lon": -114.709999,
    "country": "United States",
    "alt": 399
}, {
    "name": "Blytheville Arkansas International Airport",
    "iata": "BYH",
    "icao": "KBYH",
    "lat": 35.96434,
    "lon": -89.943901,
    "country": "United States",
    "alt": 254
}, {
    "name": "Bo Airport",
    "iata": "KBS",
    "icao": "GFBO",
    "lat": 7.95,
    "lon": -11.767,
    "country": "Sierra Leone",
    "alt": 328
}, {
    "name": "Boa Vista International Airport",
    "iata": "BVB",
    "icao": "SBBV",
    "lat": 2.846311,
    "lon": -60.689999,
    "country": "Brazil",
    "alt": 276
}, {
    "name": "Boa Vista Rabil Airport",
    "iata": "BVC",
    "icao": "GVBA",
    "lat": 16.13653,
    "lon": -22.8888,
    "country": "Cape Verde",
    "alt": 69
}, {
    "name": "Boca Raton Airport",
    "iata": "BCT",
    "icao": "KBCT",
    "lat": 26.3785,
    "lon": -80.107597,
    "country": "United States",
    "alt": 13
}, {
    "name": "Bocas Del Toro International Airport",
    "iata": "BOC",
    "icao": "MPBO",
    "lat": 9.340853,
    "lon": -82.250801,
    "country": "Panama",
    "alt": 10
}, {
    "name": "Bodaybo Airport",
    "iata": "ODO",
    "icao": "UIKB",
    "lat": 57.860001,
    "lon": 114.239998,
    "country": "Russia",
    "alt": 919
}, {
    "name": "Bodo Airport",
    "iata": "BOO",
    "icao": "ENBO",
    "lat": 67.269157,
    "lon": 14.36527,
    "country": "Norway",
    "alt": 42
}, {
    "name": "Bodrum Milas Airport",
    "iata": "BJV",
    "icao": "LTFE",
    "lat": 37.25061,
    "lon": 27.66431,
    "country": "Turkey",
    "alt": 21
}, {
    "name": "Bogota El Dorado International Airport",
    "iata": "BOG",
    "icao": "SKBO",
    "lat": 4.703056,
    "lon": -74.138298,
    "country": "Colombia",
    "alt": 8361
}, {
    "name": "Boigu Island Airport",
    "iata": "GIC",
    "icao": "YBOI",
    "lat": -9.233333,
    "lon": 142.21666,
    "country": "Australia",
    "alt": 10
}, {
    "name": "Boise Airport",
    "iata": "BOI",
    "icao": "KBOI",
    "lat": 43.564362,
    "lon": -116.222,
    "country": "United States",
    "alt": 2871
}, {
    "name": "Bojnord Airport",
    "iata": "BJB",
    "icao": "OIMN",
    "lat": 37.489719,
    "lon": 57.308849,
    "country": "Iran",
    "alt": 3543
}, {
    "name": "Bol Brac Airport",
    "iata": "BWK",
    "icao": "LDSB",
    "lat": 43.285702,
    "lon": 16.679701,
    "country": "Croatia",
    "alt": 1776
}, {
    "name": "Bole Alashankou Airport",
    "iata": "BPL",
    "icao": "ZWBL",
    "lat": 44.895,
    "lon": 82.299721,
    "country": "China",
    "alt": 1253
}, {
    "name": "Bologna Guglielmo Marconi Airport",
    "iata": "BLQ",
    "icao": "LIPE",
    "lat": 44.535439,
    "lon": 11.28866,
    "country": "Italy",
    "alt": 123
}, {
    "name": "Bolzano Airport",
    "iata": "BZO",
    "icao": "LIPB",
    "lat": 46.46019,
    "lon": 11.32638,
    "country": "Italy",
    "alt": 789
}, {
    "name": "Bonaire Flamingo International Airport",
    "iata": "BON",
    "icao": "TNCB",
    "lat": 12.13104,
    "lon": -68.268501,
    "country": "Netherlands",
    "alt": 20
}, {
    "name": "Bonaventure Airport",
    "iata": "YVB",
    "icao": "CYVB",
    "lat": 48.07111,
    "lon": -65.460281,
    "country": "Canada",
    "alt": 123
}, {
    "name": "Bonito Airport",
    "iata": "BYO",
    "icao": "SBDB",
    "lat": -21.247299,
    "lon": -56.452499,
    "country": "Brazil",
    "alt": 1180
}, {
    "name": "Bonn Hangelar Airport",
    "iata": "QCH",
    "icao": "EDKB",
    "lat": 50.76889,
    "lon": 7.163333,
    "country": "Germany",
    "alt": 196
}, {
    "name": "Bonnyville Airport",
    "iata": "YBY",
    "icao": "CYBF",
    "lat": 54.299999,
    "lon": -110.739998,
    "country": "Canada",
    "alt": 1836
}, {
    "name": "Boolgeeda Airport",
    "iata": "OCM",
    "icao": "YBGD",
    "lat": -22.540001,
    "lon": 117.275002,
    "country": "Australia",
    "alt": 1866
}, {
    "name": "Bor Podkamennaya Tunguska Airport",
    "iata": "TGP",
    "icao": "UNIP",
    "lat": 61.59,
    "lon": 89.979446,
    "country": "Russia",
    "alt": 213
}, {
    "name": "Bora Bora Airport",
    "iata": "BOB",
    "icao": "NTTB",
    "lat": -16.4443,
    "lon": -151.751007,
    "country": "French Polynesia",
    "alt": 10
}, {
    "name": "Bordeaux Merignac Airport",
    "iata": "BOD",
    "icao": "LFBD",
    "lat": 44.828609,
    "lon": -0.71527,
    "country": "France",
    "alt": 166
}, {
    "name": "Borger Hutchinson County Airport",
    "iata": "BGD",
    "icao": "KBGD",
    "lat": 35.700901,
    "lon": -101.393997,
    "country": "United States",
    "alt": 3055
}, {
    "name": "Borkum Airport",
    "iata": "BMK",
    "icao": "EDWR",
    "lat": 53.595501,
    "lon": 6.709167,
    "country": "Germany",
    "alt": 3
}, {
    "name": "Borlange Dala Airport",
    "iata": "BLE",
    "icao": "ESSD",
    "lat": 60.422009,
    "lon": 15.51521,
    "country": "Sweden",
    "alt": 503
}, {
    "name": "Bornholm Airport",
    "iata": "RNN",
    "icao": "EKRN",
    "lat": 55.063259,
    "lon": 14.75955,
    "country": "Denmark",
    "alt": 52
}, {
    "name": "Bosaso Airport",
    "iata": "BSA",
    "icao": "HCMF",
    "lat": 11.283333,
    "lon": 49.150002,
    "country": "Somalia",
    "alt": 6
}, {
    "name": "Bost Airport",
    "iata": "BST",
    "icao": "OABT",
    "lat": 31.55901,
    "lon": 64.36409,
    "country": "Afghanistan",
    "alt": 2464
}, {
    "name": "Boston Logan International Airport",
    "iata": "BOS",
    "icao": "KBOS",
    "lat": 42.362968,
    "lon": -71.006401,
    "country": "United States",
    "alt": 20
}, {
    "name": "Bouake Airport",
    "iata": "BYK",
    "icao": "DIBK",
    "lat": 7.7388,
    "lon": -5.07366,
    "country": "Cote D'ivoire (Ivory Coast)",
    "alt": 1230
}, {
    "name": "Bouarfa Airport",
    "iata": "UAR",
    "icao": "GMFB",
    "lat": 32.514172,
    "lon": -1.98167,
    "country": "Morocco",
    "alt": 3633
}, {
    "name": "Boulder City Municipal Airport",
    "iata": "BLD",
    "icao": "KBVU",
    "lat": 35.946777,
    "lon": -114.856377,
    "country": "United States",
    "alt": 2203
}, {
    "name": "Boulder Municipal Airport",
    "iata": "WBU",
    "icao": "KBDU",
    "lat": 40.039398,
    "lon": -105.225998,
    "country": "United States",
    "alt": 5288
}, {
    "name": "Boulia Airport",
    "iata": "BQL",
    "icao": "YBOU",
    "lat": -22.9,
    "lon": 139.899994,
    "country": "Australia",
    "alt": 542
}, {
    "name": "Bountiful Skypark Airport",
    "iata": "BTF",
    "icao": "KBTF",
    "lat": 40.8694,
    "lon": -111.927002,
    "country": "United States",
    "alt": 4234
}, {
    "name": "Bourg-en-Bresse Ceyzeriat Airport",
    "iata": "QCU",
    "icao": "LFHS",
    "lat": 46.205555,
    "lon": 5.291667,
    "country": "France",
    "alt": "-1"
}, {
    "name": "Bourges Airport",
    "iata": "BOU",
    "icao": "LFLD",
    "lat": 47.064449,
    "lon": 2.378953,
    "country": "France",
    "alt": 529
}, {
    "name": "Bourke Airport",
    "iata": "BRK",
    "icao": "YBKE",
    "lat": -30.0392,
    "lon": 145.951996,
    "country": "Australia",
    "alt": 352
}, {
    "name": "Bournemouth Airport",
    "iata": "BOH",
    "icao": "EGHH",
    "lat": 50.779999,
    "lon": -1.8425,
    "country": "United Kingdom",
    "alt": 38
}, {
    "name": "Bovanenkovo Airport",
    "iata": "BVJ",
    "icao": "USDB",
    "lat": 70.315277,
    "lon": 68.333611,
    "country": "Russia",
    "alt": 23
}, {
    "name": "Bowling Green Warren County Regional Airport",
    "iata": "BWG",
    "icao": "KBWG",
    "lat": 36.962223,
    "lon": -86.422218,
    "country": "United States",
    "alt": 547
}, {
    "name": "Bozeman Yellowstone International Airport",
    "iata": "BZN",
    "icao": "KBZN",
    "lat": 45.777458,
    "lon": -111.152,
    "country": "United States",
    "alt": 4473
}, {
    "name": "Bradford Regional Airport",
    "iata": "BFD",
    "icao": "KBFD",
    "lat": 41.802223,
    "lon": -78.639442,
    "country": "United States",
    "alt": 2143
}, {
    "name": "Braga Airport",
    "iata": "BGZ",
    "icao": "LPBR",
    "lat": 41.587101,
    "lon": -8.44514,
    "country": "Portugal",
    "alt": 247
}, {
    "name": "Braganca Airport",
    "iata": "BGC",
    "icao": "LPBG",
    "lat": 41.8578,
    "lon": -6.70712,
    "country": "Portugal",
    "alt": 2241
}, {
    "name": "Brainerd Lakes Regional Airport",
    "iata": "BRD",
    "icao": "KBRD",
    "lat": 46.397221,
    "lon": -94.137497,
    "country": "United States",
    "alt": 1226
}, {
    "name": "Brandon Municipal Airport",
    "iata": "YBR",
    "icao": "CYBR",
    "lat": 49.91,
    "lon": -99.951897,
    "country": "Canada",
    "alt": 1343
}, {
    "name": "Branson Airport",
    "iata": "BKG",
    "icao": "KBBG",
    "lat": 36.532082,
    "lon": -93.2005,
    "country": "United States",
    "alt": 1302
}, {
    "name": "Brasilia International Airport",
    "iata": "BSB",
    "icao": "SBBR",
    "lat": -15.8711,
    "lon": -47.918598,
    "country": "Brazil",
    "alt": 3479
}, {
    "name": "Brasov Airport",
    "iata": "BRV",
    "icao": "LROV",
    "lat": 45.701668,
    "lon": 25.52,
    "country": "Romania",
    "alt": 1740
}, {
    "name": "Bratislava M. R. Stefanik Airport",
    "iata": "BTS",
    "icao": "LZIB",
    "lat": 48.170158,
    "lon": 17.21266,
    "country": "Slovakia",
    "alt": 436
}, {
    "name": "Bratsk Airport",
    "iata": "BTK",
    "icao": "UIBB",
    "lat": 56.370548,
    "lon": 101.698303,
    "country": "Russia",
    "alt": 1610
}, {
    "name": "Braunschweig Airport",
    "iata": "BWE",
    "icao": "EDVE",
    "lat": 52.31916,
    "lon": 10.55611,
    "country": "Germany",
    "alt": 295
}, {
    "name": "Brazzaville Maya Maya Airport",
    "iata": "BZV",
    "icao": "FCBB",
    "lat": -4.2517,
    "lon": 15.25303,
    "country": "Congo",
    "alt": 1048
}, {
    "name": "Brekstad Orland Airport",
    "iata": "OLA",
    "icao": "ENOL",
    "lat": 63.698898,
    "lon": 9.604003,
    "country": "Norway",
    "alt": 28
}, {
    "name": "Bremen Airport",
    "iata": "BRE",
    "icao": "EDDW",
    "lat": 53.047501,
    "lon": 8.786667,
    "country": "Germany",
    "alt": 14
}, {
    "name": "Bremerton National Airport",
    "iata": "PWT",
    "icao": "KPWT",
    "lat": 47.485001,
    "lon": -122.763336,
    "country": "United States",
    "alt": 439
}, {
    "name": "Brescia Airport",
    "iata": "VBS",
    "icao": "LIPO",
    "lat": 45.428879,
    "lon": 10.33055,
    "country": "Italy",
    "alt": 356
}, {
    "name": "Brest Airport",
    "iata": "BQT",
    "icao": "UMBB",
    "lat": 52.116669,
    "lon": 23.883333,
    "country": "Belarus",
    "alt": 469
}, {
    "name": "Brest Bretagne Airport",
    "iata": "BES",
    "icao": "LFRB",
    "lat": 48.44722,
    "lon": -4.42166,
    "country": "France",
    "alt": 325
}, {
    "name": "Breves Airport",
    "iata": "BVS",
    "icao": "SNVS",
    "lat": -1.636789,
    "lon": -50.443901,
    "country": "Brazil",
    "alt": 47
}, {
    "name": "Brevig Mission Airport",
    "iata": "KTS",
    "icao": "PFKT",
    "lat": 65.331299,
    "lon": -166.466003,
    "country": "United States",
    "alt": 38
}, {
    "name": "Bria Airport",
    "iata": "BIV",
    "icao": "FEFR",
    "lat": 6.527778,
    "lon": 21.989441,
    "country": "Central African Republic",
    "alt": 1975
}, {
    "name": "Bridgetown Grantley Adams International Airport",
    "iata": "BGI",
    "icao": "TBPB",
    "lat": 13.0746,
    "lon": -59.492401,
    "country": "Barbados",
    "alt": 169
}, {
    "name": "Brighton City Shoreham Airport",
    "iata": "ESH",
    "icao": "EGKA",
    "lat": 50.835548,
    "lon": -0.29722,
    "country": "United Kingdom",
    "alt": 7
}, {
    "name": "Brindisi Airport",
    "iata": "BDS",
    "icao": "LIBR",
    "lat": 40.657631,
    "lon": 17.947029,
    "country": "Italy",
    "alt": 47
}, {
    "name": "Brisbane Airport",
    "iata": "BNE",
    "icao": "YBBN",
    "lat": -27.3841,
    "lon": 153.117493,
    "country": "Australia",
    "alt": 13
}, {
    "name": "Bristol Airport",
    "iata": "BRS",
    "icao": "EGGD",
    "lat": 51.38266,
    "lon": -2.71908,
    "country": "United Kingdom",
    "alt": 622
}, {
    "name": "Brive Souillac Airport",
    "iata": "BVE",
    "icao": "LFSL",
    "lat": 45.040031,
    "lon": 1.487762,
    "country": "France",
    "alt": 1016
}, {
    "name": "Brno Turany Airport",
    "iata": "BRQ",
    "icao": "LKTB",
    "lat": 49.15126,
    "lon": 16.694429,
    "country": "Czechia",
    "alt": 778
}, {
    "name": "Brochet Airport",
    "iata": "YBT",
    "icao": "CYBT",
    "lat": 57.889439,
    "lon": -101.678001,
    "country": "Canada",
    "alt": 1136
}, {
    "name": "Broken Hill Airport",
    "iata": "BHQ",
    "icao": "YBHI",
    "lat": -31.998983,
    "lon": 141.468567,
    "country": "Australia",
    "alt": 958
}, {
    "name": "Bromont Airport",
    "iata": "ZBM",
    "icao": "CZBM",
    "lat": 45.290798,
    "lon": -72.741402,
    "country": "Canada",
    "alt": 375
}, {
    "name": "Bronnoysund Airport",
    "iata": "BNN",
    "icao": "ENBN",
    "lat": 65.461113,
    "lon": 12.2175,
    "country": "Norway",
    "alt": 25
}, {
    "name": "Brookings Airport",
    "iata": "BKX",
    "icao": "KBKX",
    "lat": 44.303333,
    "lon": -96.811111,
    "country": "United States",
    "alt": 1648
}, {
    "name": "Broome International Airport",
    "iata": "BME",
    "icao": "YBRM",
    "lat": -17.9447,
    "lon": 122.231598,
    "country": "Australia",
    "alt": 56
}, {
    "name": "Brownsville South Padre Island International Airport",
    "iata": "BRO",
    "icao": "KBRO",
    "lat": 25.90683,
    "lon": -97.425797,
    "country": "United States",
    "alt": 22
}, {
    "name": "Brownwood Regional Airport",
    "iata": "BWD",
    "icao": "KBWD",
    "lat": 31.794722,
    "lon": -98.956665,
    "country": "United States",
    "alt": 1387
}, {
    "name": "Brunei International Airport",
    "iata": "BWN",
    "icao": "WBSB",
    "lat": 4.9442,
    "lon": 114.928299,
    "country": "Brunei",
    "alt": 73
}, {
    "name": "Brunswick Golden Isles Airport",
    "iata": "BQK",
    "icao": "KBQK",
    "lat": 31.258801,
    "lon": -81.4664,
    "country": "United States",
    "alt": 26
}, {
    "name": "Brunswick Malcolm McKinnon Airport",
    "iata": "SSI",
    "icao": "KSSI",
    "lat": 31.15,
    "lon": -81.389999,
    "country": "United States",
    "alt": 19
}, {
    "name": "Brussels Airport",
    "iata": "BRU",
    "icao": "EBBR",
    "lat": 50.901379,
    "lon": 4.484444,
    "country": "Belgium",
    "alt": 184
}, {
    "name": "Brussels South Charleroi Airport",
    "iata": "CRL",
    "icao": "EBCI",
    "lat": 50.459999,
    "lon": 4.452778,
    "country": "Belgium",
    "alt": 614
},